[
 {
   "Stationsnamn": "Fårösund Ar A",
   "Stationsnummer": 78550,
   "Latitud": 57.9167,
   "Longitud": 18.9568,
   "Aktiv": 1
 },
 {
   "Stationsnamn": "Norrköping-SMHI",
   "Stationsnummer": 86340,
   "Latitud": 58.5828,
   "Longitud": 16.147,
   "Aktiv": 1
 },
 {
   "Stationsnamn": "Norrsundet",
   "Stationsnummer": 107560,
   "Latitud": 60.9297,
   "Longitud": 17.1561,
   "Aktiv": 1
 },
 {
   "Stationsnamn": "Falsterbo",
   "Stationsnummer": 52230,
   "Latitud": 55.3836,
   "Longitud": 12.8203,
   "Aktiv": 1
 },
 {
   "Stationsnamn": "Falsterbo A",
   "Stationsnummer": 52240,
   "Latitud": 55.3838,
   "Longitud": 12.819,
   "Aktiv": 1
 },
 {
   "Stationsnamn": "Malmö A",
   "Stationsnummer": 52350,
   "Latitud": 55.5714,
   "Longitud": 13.0734,
   "Aktiv": 1
 },
 {
   "Stationsnamn": "Landskrona D",
   "Stationsnummer": 52520,
   "Latitud": 55.8659,
   "Longitud": 12.8512,
   "Aktiv": 1
 },
 {
   "Stationsnamn": "Ven",
   "Stationsnummer": 52550,
   "Latitud": 55.912,
   "Longitud": 12.6823,
   "Aktiv": 1
 },
 {
   "Stationsnamn": "Beddingestrand",
   "Stationsnummer": 53190,
   "Latitud": 55.3606,
   "Longitud": 13.4343,
   "Aktiv": 1
 },
 {
   "Stationsnamn": "Trelleborg",
   "Stationsnummer": 53230,
   "Latitud": 55.381,
   "Longitud": 13.1279,
   "Aktiv": 1
 },
 {
   "Stationsnamn": "Ystad",
   "Stationsnummer": 53260,
   "Latitud": 55.4325,
   "Longitud": 13.8067,
   "Aktiv": 1
 },
 {
   "Stationsnamn": "Skurup D",
   "Stationsnummer": 53280,
   "Latitud": 55.4405,
   "Longitud": 13.4796,
   "Aktiv": 1
 },
 {
   "Stationsnamn": "Sturup",
   "Stationsnummer": 53300,
   "Latitud": 55.5231,
   "Longitud": 13.3787,
   "Aktiv": 1
 },
 {
   "Stationsnamn": "ESMS",
   "Stationsnummer": 53306,
   "Latitud": 55.539,
   "Longitud": 13.3665,
   "Aktiv": 1
 },
 {
   "Stationsnamn": "Tomelilla",
   "Stationsnummer": 53320,
   "Latitud": 55.5533,
   "Longitud": 13.945,
   "Aktiv": 1
 },
 {
   "Stationsnamn": "Malmö",
   "Stationsnummer": 53360,
   "Latitud": 55.5726,
   "Longitud": 13.0776,
   "Aktiv": 1
 },
 {
   "Stationsnamn": "Björnstorp",
   "Stationsnummer": 53380,
   "Latitud": 55.6254,
   "Longitud": 13.4122,
   "Aktiv": 1
 },
 {
   "Stationsnamn": "Lövestad",
   "Stationsnummer": 53400,
   "Latitud": 55.6008,
   "Longitud": 13.892,
   "Aktiv": 1
 },
 {
   "Stationsnamn": "Vomb",
   "Stationsnummer": 53410,
   "Latitud": 55.6616,
   "Longitud": 13.5323,
   "Aktiv": 1
 },
 {
   "Stationsnamn": "Lund",
   "Stationsnummer": 53430,
   "Latitud": 55.693,
   "Longitud": 13.229,
   "Aktiv": 1
 },
 {
   "Stationsnamn": "Sjöbo D",
   "Stationsnummer": 53450,
   "Latitud": 55.6405,
   "Longitud": 13.683,
   "Aktiv": 1
 },
 {
   "Stationsnamn": "Hörby A",
   "Stationsnummer": 53530,
   "Latitud": 55.8633,
   "Longitud": 13.6689,
   "Aktiv": 1
 },
 {
   "Stationsnamn": "Stehag",
   "Stationsnummer": 53540,
   "Latitud": 55.8814,
   "Longitud": 13.4424,
   "Aktiv": 1
 },
 {
   "Stationsnamn": "Knopparp D",
   "Stationsnummer": 53570,
   "Latitud": 55.9299,
   "Longitud": 13.8491,
   "Aktiv": 1
 },
 {
   "Stationsnamn": "Skillinge A",
   "Stationsnummer": 54290,
   "Latitud": 55.4889,
   "Longitud": 14.3172,
   "Aktiv": 1
 },
 {
   "Stationsnamn": "Bollerup",
   "Stationsnummer": 54300,
   "Latitud": 55.4907,
   "Longitud": 14.0476,
   "Aktiv": 1
 },
 {
   "Stationsnamn": "Stiby",
   "Stationsnummer": 54340,
   "Latitud": 55.5629,
   "Longitud": 14.191,
   "Aktiv": 1
 },
 {
   "Stationsnamn": "Brösarp D",
   "Stationsnummer": 54410,
   "Latitud": 55.7206,
   "Longitud": 14.1049,
   "Aktiv": 1
 },
 {
   "Stationsnamn": "Degeberga D",
   "Stationsnummer": 54480,
   "Latitud": 55.7965,
   "Longitud": 14.1668,
   "Aktiv": 1
 },
 {
   "Stationsnamn": "Helsingborg 2",
   "Stationsnummer": 62020,
   "Latitud": 56.0261,
   "Longitud": 12.7432,
   "Aktiv": 1
 },
 {
   "Stationsnamn": "Helsingborg A",
   "Stationsnummer": 62040,
   "Latitud": 56.0304,
   "Longitud": 12.7653,
   "Aktiv": 1
 },
 {
   "Stationsnamn": "Tånga",
   "Stationsnummer": 62120,
   "Latitud": 56.2013,
   "Longitud": 12.7782,
   "Aktiv": 1
 },
 {
   "Stationsnamn": "Munka-Ljungby D",
   "Stationsnummer": 62130,
   "Latitud": 56.2225,
   "Longitud": 12.996,
   "Aktiv": 1
 },
 {
   "Stationsnamn": "Nyhamnsläge",
   "Stationsnummer": 62140,
   "Latitud": 56.2451,
   "Longitud": 12.5438,
   "Aktiv": 1
 },
 {
   "Stationsnamn": "Louisefred",
   "Stationsnummer": 62150,
   "Latitud": 56.242,
   "Longitud": 12.5778,
   "Aktiv": 1
 },
 {
   "Stationsnamn": "Baramossa",
   "Stationsnummer": 62220,
   "Latitud": 56.384,
   "Longitud": 12.9839,
   "Aktiv": 1
 },
 {
   "Stationsnamn": "Hallands Väderö A",
   "Stationsnummer": 62260,
   "Latitud": 56.4495,
   "Longitud": 12.547,
   "Aktiv": 1
 },
 {
   "Stationsnamn": "Hov",
   "Stationsnummer": 62270,
   "Latitud": 56.4498,
   "Longitud": 12.7033,
   "Aktiv": 1
 },
 {
   "Stationsnamn": "Laholm D",
   "Stationsnummer": 62300,
   "Latitud": 56.4946,
   "Longitud": 12.989,
   "Aktiv": 1
 },
 {
   "Stationsnamn": "Halmstad",
   "Stationsnummer": 62400,
   "Latitud": 56.6737,
   "Longitud": 12.9242,
   "Aktiv": 1
 },
 {
   "Stationsnamn": "Eftra D",
   "Stationsnummer": 62510,
   "Latitud": 56.8584,
   "Longitud": 12.6475,
   "Aktiv": 1
 },
 {
   "Stationsnamn": "Gillastig",
   "Stationsnummer": 63010,
   "Latitud": 56.0147,
   "Longitud": 13.2334,
   "Aktiv": 1
 },
 {
   "Stationsnamn": "Klippan",
   "Stationsnummer": 63070,
   "Latitud": 56.1391,
   "Longitud": 13.2516,
   "Aktiv": 1
 },
 {
   "Stationsnamn": "Hästveda Mo",
   "Stationsnummer": 63160,
   "Latitud": 56.2799,
   "Longitud": 13.9432,
   "Aktiv": 1
 },
 {
   "Stationsnamn": "Örkelljunga",
   "Stationsnummer": 63170,
   "Latitud": 56.2829,
   "Longitud": 13.3002,
   "Aktiv": 1
 },
 {
   "Stationsnamn": "Bjärnum D",
   "Stationsnummer": 63180,
   "Latitud": 56.2907,
   "Longitud": 13.7464,
   "Aktiv": 1
 },
 {
   "Stationsnamn": "Osby",
   "Stationsnummer": 63220,
   "Latitud": 56.3742,
   "Longitud": 13.9376,
   "Aktiv": 1
 },
 {
   "Stationsnamn": "Markaryd",
   "Stationsnummer": 63280,
   "Latitud": 56.4595,
   "Longitud": 13.6191,
   "Aktiv": 1
 },
 {
   "Stationsnamn": "Knäred D",
   "Stationsnummer": 63320,
   "Latitud": 56.5218,
   "Longitud": 13.3364,
   "Aktiv": 1
 },
 {
   "Stationsnamn": "Marbäck D",
   "Stationsnummer": 63410,
   "Latitud": 56.7001,
   "Longitud": 13.0332,
   "Aktiv": 1
 },
 {
   "Stationsnamn": "Vrå D",
   "Stationsnummer": 63430,
   "Latitud": 56.7361,
   "Longitud": 13.454,
   "Aktiv": 1
 },
 {
   "Stationsnamn": "Ljungby D",
   "Stationsnummer": 63500,
   "Latitud": 56.8099,
   "Longitud": 13.9694,
   "Aktiv": 1
 },
 {
   "Stationsnamn": "Ljungby A",
   "Stationsnummer": 63510,
   "Latitud": 56.8526,
   "Longitud": 13.8822,
   "Aktiv": 1
 },
 {
   "Stationsnamn": "Bakarebo D",
   "Stationsnummer": 63550,
   "Latitud": 56.9029,
   "Longitud": 13.696,
   "Aktiv": 1
 },
 {
   "Stationsnamn": "Torup A",
   "Stationsnummer": 63590,
   "Latitud": 56.9496,
   "Longitud": 13.0625,
   "Aktiv": 1
 },
 {
   "Stationsnamn": "Lidhult D",
   "Stationsnummer": 63670,
   "Latitud": 56.828,
   "Longitud": 13.4502,
   "Aktiv": 1
 },
 {
   "Stationsnamn": "Tosteberga",
   "Stationsnummer": 64010,
   "Latitud": 56.0094,
   "Longitud": 14.4429,
   "Aktiv": 1
 },
 {
   "Stationsnamn": "Hanö A",
   "Stationsnummer": 64020,
   "Latitud": 56.0131,
   "Longitud": 14.8488,
   "Aktiv": 1
 },
 {
   "Stationsnamn": "Kristianstad",
   "Stationsnummer": 64030,
   "Latitud": 56.0133,
   "Longitud": 14.2896,
   "Aktiv": 1
 },
 {
   "Stationsnamn": "Bromölla",
   "Stationsnummer": 64070,
   "Latitud": 56.0642,
   "Longitud": 14.4783,
   "Aktiv": 1
 },
 {
   "Stationsnamn": "Norra Ströö",
   "Stationsnummer": 64080,
   "Latitud": 56.1049,
   "Longitud": 14.0173,
   "Aktiv": 1
 },
 {
   "Stationsnamn": "Karlshamn",
   "Stationsnummer": 64130,
   "Latitud": 56.1813,
   "Longitud": 14.8517,
   "Aktiv": 1
 },
 {
   "Stationsnamn": "Olofström",
   "Stationsnummer": 64170,
   "Latitud": 56.2773,
   "Longitud": 14.5177,
   "Aktiv": 1
 },
 {
   "Stationsnamn": "Olastorp",
   "Stationsnummer": 64250,
   "Latitud": 56.4188,
   "Longitud": 14.3546,
   "Aktiv": 1
 },
 {
   "Stationsnamn": "Tingsryd-Degerhaga",
   "Stationsnummer": 64320,
   "Latitud": 56.5376,
   "Longitud": 14.9019,
   "Aktiv": 1
 },
 {
   "Stationsnamn": "Pjätteryd",
   "Stationsnummer": 64380,
   "Latitud": 56.6199,
   "Longitud": 14.0229,
   "Aktiv": 1
 },
 {
   "Stationsnamn": "Hyltan",
   "Stationsnummer": 64410,
   "Latitud": 56.6815,
   "Longitud": 14.3358,
   "Aktiv": 1
 },
 {
   "Stationsnamn": "Växjö A",
   "Stationsnummer": 64510,
   "Latitud": 56.8464,
   "Longitud": 14.8324,
   "Aktiv": 1
 },
 {
   "Stationsnamn": "Växjö D",
   "Stationsnummer": 64520,
   "Latitud": 56.8811,
   "Longitud": 14.8289,
   "Aktiv": 1
 },
 {
   "Stationsnamn": "Åby",
   "Stationsnummer": 64550,
   "Latitud": 56.9152,
   "Longitud": 14.0141,
   "Aktiv": 1
 },
 {
   "Stationsnamn": "Räfsebo D",
   "Stationsnummer": 64590,
   "Latitud": 56.9857,
   "Longitud": 14.2124,
   "Aktiv": 1
 },
 {
   "Stationsnamn": "Karlskrona-Söderstjerna Mo",
   "Stationsnummer": 65090,
   "Latitud": 56.1498,
   "Longitud": 15.5921,
   "Aktiv": 1
 },
 {
   "Stationsnamn": "Lyckeby",
   "Stationsnummer": 65120,
   "Latitud": 56.2141,
   "Longitud": 15.7106,
   "Aktiv": 1
 },
 {
   "Stationsnamn": "Ronneby-Bredåkra",
   "Stationsnummer": 65160,
   "Latitud": 56.2619,
   "Longitud": 15.2742,
   "Aktiv": 1
 },
 {
   "Stationsnamn": "Bredåkra D",
   "Stationsnummer": 65170,
   "Latitud": 56.2523,
   "Longitud": 15.2548,
   "Aktiv": 1
 },
 {
   "Stationsnamn": "Fridlevstad D",
   "Stationsnummer": 65180,
   "Latitud": 56.2596,
   "Longitud": 15.5362,
   "Aktiv": 1
 },
 {
   "Stationsnamn": "Torsås",
   "Stationsnummer": 65250,
   "Latitud": 56.4112,
   "Longitud": 15.988,
   "Aktiv": 1
 },
 {
   "Stationsnamn": "Eringsboda D",
   "Stationsnummer": 65260,
   "Latitud": 56.4459,
   "Longitud": 15.3663,
   "Aktiv": 1
 },
 {
   "Stationsnamn": "Emmaboda D",
   "Stationsnummer": 65360,
   "Latitud": 56.5977,
   "Longitud": 15.5347,
   "Aktiv": 1
 },
 {
   "Stationsnamn": "Stångsmåla D",
   "Stationsnummer": 65370,
   "Latitud": 56.6105,
   "Longitud": 15.138,
   "Aktiv": 1
 },
 {
   "Stationsnamn": "Nybro-Slättingebygd D",
   "Stationsnummer": 65440,
   "Latitud": 56.8507,
   "Longitud": 15.9918,
   "Aktiv": 1
 },
 {
   "Stationsnamn": "Lessebo",
   "Stationsnummer": 65450,
   "Latitud": 56.7379,
   "Longitud": 15.3495,
   "Aktiv": 1
 },
 {
   "Stationsnamn": "Orrefors D",
   "Stationsnummer": 65500,
   "Latitud": 56.8216,
   "Longitud": 15.7009,
   "Aktiv": 1
 },
 {
   "Stationsnamn": "Kosta Mo",
   "Stationsnummer": 65510,
   "Latitud": 56.8403,
   "Longitud": 15.47,
   "Aktiv": 1
 },
 {
   "Stationsnamn": "Hinshult",
   "Stationsnummer": 65580,
   "Latitud": 56.9703,
   "Longitud": 15.8768,
   "Aktiv": 1
 },
 {
   "Stationsnamn": "Ölands Södra Udde A",
   "Stationsnummer": 66110,
   "Latitud": 56.1977,
   "Longitud": 16.4036,
   "Aktiv": 1
 },
 {
   "Stationsnamn": "Komstorp",
   "Stationsnummer": 66170,
   "Latitud": 56.2774,
   "Longitud": 16.0197,
   "Aktiv": 1
 },
 {
   "Stationsnamn": "Trolleboda D",
   "Stationsnummer": 66180,
   "Latitud": 56.3008,
   "Longitud": 16.0355,
   "Aktiv": 1
 },
 {
   "Stationsnamn": "Segerstad",
   "Stationsnummer": 66220,
   "Latitud": 56.3689,
   "Longitud": 16.5444,
   "Aktiv": 1
 },
 {
   "Stationsnamn": "Kastlösa",
   "Stationsnummer": 66260,
   "Latitud": 56.4323,
   "Longitud": 16.4213,
   "Aktiv": 1
 },
 {
   "Stationsnamn": "Norra Möckleby D",
   "Stationsnummer": 66380,
   "Latitud": 56.6332,
   "Longitud": 16.6703,
   "Aktiv": 1
 },
 {
   "Stationsnamn": "Kalmar D",
   "Stationsnummer": 66430,
   "Latitud": 56.6622,
   "Longitud": 16.282,
   "Aktiv": 1
 },
 {
   "Stationsnamn": "Bjärby D",
   "Stationsnummer": 66440,
   "Latitud": 56.7126,
   "Longitud": 16.708,
   "Aktiv": 1
 },
 {
   "Stationsnamn": "Skedemosse D",
   "Stationsnummer": 66500,
   "Latitud": 56.807,
   "Longitud": 16.7426,
   "Aktiv": 1
 },
 {
   "Stationsnamn": "Hoburg D",
   "Stationsnummer": 68550,
   "Latitud": 56.922,
   "Longitud": 18.1504,
   "Aktiv": 1
 },
 {
   "Stationsnamn": "Hoburg A",
   "Stationsnummer": 68560,
   "Latitud": 56.9213,
   "Longitud": 18.1541,
   "Aktiv": 1
 },
 {
   "Stationsnamn": "Nidingen A",
   "Stationsnummer": 71190,
   "Latitud": 57.304,
   "Longitud": 11.9064,
   "Aktiv": 1
 },
 {
   "Stationsnamn": "Onsala D",
   "Stationsnummer": 71230,
   "Latitud": 57.3847,
   "Longitud": 11.9749,
   "Aktiv": 1
 },
 {
   "Stationsnamn": "Vinga A",
   "Stationsnummer": 71380,
   "Latitud": 57.6324,
   "Longitud": 11.6077,
   "Aktiv": 1
 },
 {
   "Stationsnamn": "Göteborg A",
   "Stationsnummer": 71420,
   "Latitud": 57.7157,
   "Longitud": 11.9925,
   "Aktiv": 1
 },
 {
   "Stationsnamn": "Kärna",
   "Stationsnummer": 71510,
   "Latitud": 57.8403,
   "Longitud": 11.8086,
   "Aktiv": 1
 },
 {
   "Stationsnamn": "Varberg",
   "Stationsnummer": 72080,
   "Latitud": 57.1084,
   "Longitud": 12.2741,
   "Aktiv": 1
 },
 {
   "Stationsnamn": "Ullared A",
   "Stationsnummer": 72090,
   "Latitud": 57.1136,
   "Longitud": 12.7758,
   "Aktiv": 1
 },
 {
   "Stationsnamn": "Källsjö",
   "Stationsnummer": 72140,
   "Latitud": 57.2323,
   "Longitud": 12.7042,
   "Aktiv": 1
 },
 {
   "Stationsnamn": "Veddige D",
   "Stationsnummer": 72170,
   "Latitud": 57.2618,
   "Longitud": 12.3228,
   "Aktiv": 1
 },
 {
   "Stationsnamn": "Linhult D",
   "Stationsnummer": 72180,
   "Latitud": 57.2949,
   "Longitud": 12.6906,
   "Aktiv": 1
 },
 {
   "Stationsnamn": "Fotskäl D",
   "Stationsnummer": 72210,
   "Latitud": 57.4382,
   "Longitud": 12.4135,
   "Aktiv": 1
 },
 {
   "Stationsnamn": "Rossared D",
   "Stationsnummer": 72300,
   "Latitud": 57.485,
   "Longitud": 12.1997,
   "Aktiv": 1
 },
 {
   "Stationsnamn": "Grebbeshult",
   "Stationsnummer": 72330,
   "Latitud": 57.5413,
   "Longitud": 12.463,
   "Aktiv": 1
 },
 {
   "Stationsnamn": "Horred",
   "Stationsnummer": 72350,
   "Latitud": 57.3747,
   "Longitud": 12.4526,
   "Aktiv": 1
 },
 {
   "Stationsnamn": "Kållered D",
   "Stationsnummer": 72360,
   "Latitud": 57.6095,
   "Longitud": 12.0673,
   "Aktiv": 1
 },
 {
   "Stationsnamn": "Häggårda",
   "Stationsnummer": 72370,
   "Latitud": 57.6149,
   "Longitud": 12.9451,
   "Aktiv": 1
 },
 {
   "Stationsnamn": "Bollebygd",
   "Stationsnummer": 72400,
   "Latitud": 57.6381,
   "Longitud": 12.6335,
   "Aktiv": 1
 },
 {
   "Stationsnamn": "Borås",
   "Stationsnummer": 72450,
   "Latitud": 57.7611,
   "Longitud": 12.9493,
   "Aktiv": 1
 },
 {
   "Stationsnamn": "Mollsjönäs D",
   "Stationsnummer": 72530,
   "Latitud": 57.8638,
   "Longitud": 12.1399,
   "Aktiv": 1
 },
 {
   "Stationsnamn": "Sätila",
   "Stationsnummer": 72540,
   "Latitud": 57.5467,
   "Longitud": 12.438,
   "Aktiv": 1
 },
 {
   "Stationsnamn": "Alingsås D",
   "Stationsnummer": 72560,
   "Latitud": 57.8898,
   "Longitud": 12.552,
   "Aktiv": 1
 },
 {
   "Stationsnamn": "Askim D",
   "Stationsnummer": 72620,
   "Latitud": 57.6283,
   "Longitud": 11.9613,
   "Aktiv": 1
 },
 {
   "Stationsnamn": "Härryda",
   "Stationsnummer": 72680,
   "Latitud": 57.6865,
   "Longitud": 12.2986,
   "Aktiv": 1
 },
 {
   "Stationsnamn": "Åminne D",
   "Stationsnummer": 73060,
   "Latitud": 57.1232,
   "Longitud": 13.9547,
   "Aktiv": 1
 },
 {
   "Stationsnamn": "Skeppshult D",
   "Stationsnummer": 73070,
   "Latitud": 57.1215,
   "Longitud": 13.4056,
   "Aktiv": 1
 },
 {
   "Stationsnamn": "Reftele D",
   "Stationsnummer": 73080,
   "Latitud": 57.1691,
   "Longitud": 13.6002,
   "Aktiv": 1
 },
 {
   "Stationsnamn": "Kävsjö D",
   "Stationsnummer": 73200,
   "Latitud": 57.3222,
   "Longitud": 13.9264,
   "Aktiv": 1
 },
 {
   "Stationsnamn": "Sjötofta D",
   "Stationsnummer": 73210,
   "Latitud": 57.3848,
   "Longitud": 13.2974,
   "Aktiv": 1
 },
 {
   "Stationsnamn": "Hid D",
   "Stationsnummer": 73220,
   "Latitud": 57.3658,
   "Longitud": 13.0486,
   "Aktiv": 1
 },
 {
   "Stationsnamn": "Hestra D",
   "Stationsnummer": 73230,
   "Latitud": 57.4669,
   "Longitud": 13.6319,
   "Aktiv": 1
 },
 {
   "Stationsnamn": "Kindsboda",
   "Stationsnummer": 73330,
   "Latitud": 57.5559,
   "Longitud": 13.2825,
   "Aktiv": 1
 },
 {
   "Stationsnamn": "Ulricehamn",
   "Stationsnummer": 73470,
   "Latitud": 57.8052,
   "Longitud": 13.4083,
   "Aktiv": 1
 },
 {
   "Stationsnamn": "Rångedala A",
   "Stationsnummer": 73480,
   "Latitud": 57.7848,
   "Longitud": 13.1668,
   "Aktiv": 1
 },
 {
   "Stationsnamn": "Mullsjö D",
   "Stationsnummer": 73560,
   "Latitud": 57.9246,
   "Longitud": 13.8806,
   "Aktiv": 1
 },
 {
   "Stationsnamn": "Sandhem",
   "Stationsnummer": 73580,
   "Latitud": 57.9657,
   "Longitud": 13.7804,
   "Aktiv": 1
 },
 {
   "Stationsnamn": "Moheda D",
   "Stationsnummer": 74000,
   "Latitud": 57.0064,
   "Longitud": 14.5712,
   "Aktiv": 1
 },
 {
   "Stationsnamn": "Söraby",
   "Stationsnummer": 74030,
   "Latitud": 57.0345,
   "Longitud": 14.9446,
   "Aktiv": 1
 },
 {
   "Stationsnamn": "Berg",
   "Stationsnummer": 74080,
   "Latitud": 57.121,
   "Longitud": 14.6931,
   "Aktiv": 1
 },
 {
   "Stationsnamn": "Rörvik D",
   "Stationsnummer": 74150,
   "Latitud": 57.2377,
   "Longitud": 14.5751,
   "Aktiv": 1
 },
 {
   "Stationsnamn": "Hagshult Mo",
   "Stationsnummer": 74180,
   "Latitud": 57.2926,
   "Longitud": 14.1399,
   "Aktiv": 1
 },
 {
   "Stationsnamn": "Nävelsjö",
   "Stationsnummer": 74240,
   "Latitud": 57.4397,
   "Longitud": 14.8863,
   "Aktiv": 1
 },
 {
   "Stationsnamn": "Sävsjö",
   "Stationsnummer": 74250,
   "Latitud": 57.3813,
   "Longitud": 14.6579,
   "Aktiv": 1
 },
 {
   "Stationsnamn": "Skillingaryd",
   "Stationsnummer": 74270,
   "Latitud": 57.4302,
   "Longitud": 14.1004,
   "Aktiv": 1
 },
 {
   "Stationsnamn": "Tomtabacken A",
   "Stationsnummer": 74300,
   "Latitud": 57.4983,
   "Longitud": 14.4672,
   "Aktiv": 1
 },
 {
   "Stationsnamn": "Malmbäck D",
   "Stationsnummer": 74360,
   "Latitud": 57.5985,
   "Longitud": 14.5206,
   "Aktiv": 1
 },
 {
   "Stationsnamn": "Flahult",
   "Stationsnummer": 74420,
   "Latitud": 57.6898,
   "Longitud": 14.1455,
   "Aktiv": 1
 },
 {
   "Stationsnamn": "Prästkulla",
   "Stationsnummer": 74440,
   "Latitud": 57.7242,
   "Longitud": 14.986,
   "Aktiv": 1
 },
 {
   "Stationsnamn": "Jönköpings Flygplats",
   "Stationsnummer": 74460,
   "Latitud": 57.7514,
   "Longitud": 14.0733,
   "Aktiv": 1
 },
 {
   "Stationsnamn": "Huskvarna",
   "Stationsnummer": 74480,
   "Latitud": 57.7865,
   "Longitud": 14.2874,
   "Aktiv": 1
 },
 {
   "Stationsnamn": "Ramsjöholm",
   "Stationsnummer": 74490,
   "Latitud": 57.8429,
   "Longitud": 14.4317,
   "Aktiv": 1
 },
 {
   "Stationsnamn": "Nobynäs D",
   "Stationsnummer": 74540,
   "Latitud": 57.911,
   "Longitud": 14.7985,
   "Aktiv": 1
 },
 {
   "Stationsnamn": "Älghult",
   "Stationsnummer": 75010,
   "Latitud": 57.0142,
   "Longitud": 15.5703,
   "Aktiv": 1
 },
 {
   "Stationsnamn": "Fagerhult D",
   "Stationsnummer": 75090,
   "Latitud": 57.1107,
   "Longitud": 15.6415,
   "Aktiv": 1
 },
 {
   "Stationsnamn": "Korsberga",
   "Stationsnummer": 75180,
   "Latitud": 57.3101,
   "Longitud": 15.2425,
   "Aktiv": 1
 },
 {
   "Stationsnamn": "Virserum-Rödmossa",
   "Stationsnummer": 75190,
   "Latitud": 57.2931,
   "Longitud": 15.5695,
   "Aktiv": 1
 },
 {
   "Stationsnamn": "Målilla A",
   "Stationsnummer": 75250,
   "Latitud": 57.3848,
   "Longitud": 15.8037,
   "Aktiv": 1
 },
 {
   "Stationsnamn": "Ungsberg",
   "Stationsnummer": 75310,
   "Latitud": 57.5103,
   "Longitud": 15.919,
   "Aktiv": 1
 },
 {
   "Stationsnamn": "Värne",
   "Stationsnummer": 75340,
   "Latitud": 57.5388,
   "Longitud": 15.1002,
   "Aktiv": 1
 },
 {
   "Stationsnamn": "Hässleby D",
   "Stationsnummer": 75380,
   "Latitud": 57.6104,
   "Longitud": 15.5776,
   "Aktiv": 1
 },
 {
   "Stationsnamn": "Södra Vi D",
   "Stationsnummer": 75430,
   "Latitud": 57.7174,
   "Longitud": 15.7092,
   "Aktiv": 1
 },
 {
   "Stationsnamn": "Svinhult D",
   "Stationsnummer": 75450,
   "Latitud": 57.7471,
   "Longitud": 15.3914,
   "Aktiv": 1
 },
 {
   "Stationsnamn": "Horn A",
   "Stationsnummer": 75520,
   "Latitud": 57.8863,
   "Longitud": 15.8652,
   "Aktiv": 1
 },
 {
   "Stationsnamn": "Norra Vi D",
   "Stationsnummer": 75540,
   "Latitud": 57.8831,
   "Longitud": 15.3286,
   "Aktiv": 1
 },
 {
   "Stationsnamn": "Kisa D",
   "Stationsnummer": 75590,
   "Latitud": 57.9845,
   "Longitud": 15.6349,
   "Aktiv": 1
 },
 {
   "Stationsnamn": "Mönsterås D",
   "Stationsnummer": 76020,
   "Latitud": 57.0271,
   "Longitud": 16.5057,
   "Aktiv": 1
 },
 {
   "Stationsnamn": "Löttorp D",
   "Stationsnummer": 76080,
   "Latitud": 57.1555,
   "Longitud": 16.9502,
   "Aktiv": 1
 },
 {
   "Stationsnamn": "Oskarshamn",
   "Stationsnummer": 76160,
   "Latitud": 57.2674,
   "Longitud": 16.4149,
   "Aktiv": 1
 },
 {
   "Stationsnamn": "Krokshult D",
   "Stationsnummer": 76230,
   "Latitud": 57.3853,
   "Longitud": 16.0976,
   "Aktiv": 1
 },
 {
   "Stationsnamn": "Kråkemåla",
   "Stationsnummer": 76280,
   "Latitud": 57.4694,
   "Longitud": 16.6538,
   "Aktiv": 1
 },
 {
   "Stationsnamn": "Ankarsrum D",
   "Stationsnummer": 76410,
   "Latitud": 57.6783,
   "Longitud": 16.1931,
   "Aktiv": 1
 },
 {
   "Stationsnamn": "Gladhammar A",
   "Stationsnummer": 76420,
   "Latitud": 57.7071,
   "Longitud": 16.4585,
   "Aktiv": 1
 },
 {
   "Stationsnamn": "Hellerö",
   "Stationsnummer": 76570,
   "Latitud": 57.9545,
   "Longitud": 16.6513,
   "Aktiv": 1
 },
 {
   "Stationsnamn": "Ölands Norra Udde A",
   "Stationsnummer": 77210,
   "Latitud": 57.3672,
   "Longitud": 17.0986,
   "Aktiv": 1
 },
 {
   "Stationsnamn": "Ölands Norra Udde",
   "Stationsnummer": 77220,
   "Latitud": 57.3689,
   "Longitud": 17.1008,
   "Aktiv": 1
 },
 {
   "Stationsnamn": "Burs D",
   "Stationsnummer": 78130,
   "Latitud": 57.2265,
   "Longitud": 18.5617,
   "Aktiv": 1
 },
 {
   "Stationsnamn": "Hemse",
   "Stationsnummer": 78140,
   "Latitud": 57.2438,
   "Longitud": 18.3835,
   "Aktiv": 1
 },
 {
   "Stationsnamn": "Ljugarn D",
   "Stationsnummer": 78190,
   "Latitud": 57.3301,
   "Longitud": 18.7104,
   "Aktiv": 1
 },
 {
   "Stationsnamn": "Vänge",
   "Stationsnummer": 78230,
   "Latitud": 57.4348,
   "Longitud": 18.486,
   "Aktiv": 1
 },
 {
   "Stationsnamn": "Sanda",
   "Stationsnummer": 78270,
   "Latitud": 57.4255,
   "Longitud": 18.2118,
   "Aktiv": 1
 },
 {
   "Stationsnamn": "Östergarnsholm A",
   "Stationsnummer": 78280,
   "Latitud": 57.4413,
   "Longitud": 18.9871,
   "Aktiv": 1
 },
 {
   "Stationsnamn": "Mästerby",
   "Stationsnummer": 78320,
   "Latitud": 57.473,
   "Longitud": 18.2739,
   "Aktiv": 1
 },
 {
   "Stationsnamn": "Visby D",
   "Stationsnummer": 78390,
   "Latitud": 57.6477,
   "Longitud": 18.3494,
   "Aktiv": 1
 },
 {
   "Stationsnamn": "Visby Flygplats",
   "Stationsnummer": 78400,
   "Latitud": 57.6614,
   "Longitud": 18.3428,
   "Aktiv": 1
 },
 {
   "Stationsnamn": "Hejnum",
   "Stationsnummer": 78420,
   "Latitud": 57.6954,
   "Longitud": 18.6377,
   "Aktiv": 1
 },
 {
   "Stationsnamn": "Austers D",
   "Stationsnummer": 78480,
   "Latitud": 57.8103,
   "Longitud": 18.6335,
   "Aktiv": 1
 },
 {
   "Stationsnamn": "Fårö D",
   "Stationsnummer": 79580,
   "Latitud": 57.9548,
   "Longitud": 19.2459,
   "Aktiv": 1
 },
 {
   "Stationsnamn": "Rörastrand",
   "Stationsnummer": 81040,
   "Latitud": 58.0582,
   "Longitud": 11.6528,
   "Aktiv": 1
 },
 {
   "Stationsnamn": "Måseskär A",
   "Stationsnummer": 81050,
   "Latitud": 58.094,
   "Longitud": 11.3333,
   "Aktiv": 1
 },
 {
   "Stationsnamn": "Henån",
   "Stationsnummer": 81140,
   "Latitud": 58.2327,
   "Longitud": 11.6826,
   "Aktiv": 1
 },
 {
   "Stationsnamn": "Lysekil D",
   "Stationsnummer": 81170,
   "Latitud": 58.2713,
   "Longitud": 11.4321,
   "Aktiv": 1
 },
 {
   "Stationsnamn": "Uddevalla D",
   "Stationsnummer": 81210,
   "Latitud": 58.3703,
   "Longitud": 11.9364,
   "Aktiv": 1
 },
 {
   "Stationsnamn": "Heden",
   "Stationsnummer": 81310,
   "Latitud": 58.5185,
   "Longitud": 11.5248,
   "Aktiv": 1
 },
 {
   "Stationsnamn": "Grebbestad",
   "Stationsnummer": 81420,
   "Latitud": 58.6933,
   "Longitud": 11.2485,
   "Aktiv": 1
 },
 {
   "Stationsnamn": "Nordkoster A",
   "Stationsnummer": 81540,
   "Latitud": 58.8925,
   "Longitud": 11.0062,
   "Aktiv": 1
 },
 {
   "Stationsnamn": "Ed D",
   "Stationsnummer": 81550,
   "Latitud": 58.9102,
   "Longitud": 11.7723,
   "Aktiv": 1
 },
 {
   "Stationsnamn": "Håvelund",
   "Stationsnummer": 81570,
   "Latitud": 58.946,
   "Longitud": 11.4414,
   "Aktiv": 1
 },
 {
   "Stationsnamn": "Vårgårda D",
   "Stationsnummer": 82020,
   "Latitud": 58.024,
   "Longitud": 12.856,
   "Aktiv": 1
 },
 {
   "Stationsnamn": "Komperöd",
   "Stationsnummer": 82040,
   "Latitud": 58.06,
   "Longitud": 12.0109,
   "Aktiv": 1
 },
 {
   "Stationsnamn": "Uplo",
   "Stationsnummer": 82060,
   "Latitud": 58.1001,
   "Longitud": 12.6568,
   "Aktiv": 1
 },
 {
   "Stationsnamn": "Gendalen",
   "Stationsnummer": 82110,
   "Latitud": 58.1589,
   "Longitud": 12.647,
   "Aktiv": 1
 },
 {
   "Stationsnamn": "Trökörna",
   "Stationsnummer": 82160,
   "Latitud": 58.2686,
   "Longitud": 12.6554,
   "Aktiv": 1
 },
 {
   "Stationsnamn": "Vänersborg",
   "Stationsnummer": 82230,
   "Latitud": 58.3552,
   "Longitud": 12.3616,
   "Aktiv": 1
 },
 {
   "Stationsnamn": "Såtenäs",
   "Stationsnummer": 82260,
   "Latitud": 58.4358,
   "Longitud": 12.7075,
   "Aktiv": 1
 },
 {
   "Stationsnamn": "Kroppefjäll-Granan A",
   "Stationsnummer": 82360,
   "Latitud": 58.6068,
   "Longitud": 12.1999,
   "Aktiv": 1
 },
 {
   "Stationsnamn": "Erikstad",
   "Stationsnummer": 82380,
   "Latitud": 58.602,
   "Longitud": 12.4447,
   "Aktiv": 1
 },
 {
   "Stationsnamn": "Bäckefors",
   "Stationsnummer": 82490,
   "Latitud": 58.8055,
   "Longitud": 12.1581,
   "Aktiv": 1
 },
 {
   "Stationsnamn": "Ånimskog",
   "Stationsnummer": 82530,
   "Latitud": 58.8746,
   "Longitud": 12.5913,
   "Aktiv": 1
 },
 {
   "Stationsnamn": "Herrljunga D",
   "Stationsnummer": 83060,
   "Latitud": 58.0862,
   "Longitud": 13.0485,
   "Aktiv": 1
 },
 {
   "Stationsnamn": "Falköping-Valtorp D",
   "Stationsnummer": 83090,
   "Latitud": 58.2363,
   "Longitud": 13.6332,
   "Aktiv": 1
 },
 {
   "Stationsnamn": "Tidaholm D",
   "Stationsnummer": 83110,
   "Latitud": 58.1806,
   "Longitud": 13.9829,
   "Aktiv": 1
 },
 {
   "Stationsnamn": "Vedum",
   "Stationsnummer": 83150,
   "Latitud": 58.1536,
   "Longitud": 13.0388,
   "Aktiv": 1
 },
 {
   "Stationsnamn": "Hällum A",
   "Stationsnummer": 83190,
   "Latitud": 58.3221,
   "Longitud": 13.0406,
   "Aktiv": 1
 },
 {
   "Stationsnamn": "Lanna",
   "Stationsnummer": 83210,
   "Latitud": 58.3476,
   "Longitud": 13.1296,
   "Aktiv": 1
 },
 {
   "Stationsnamn": "Kilagården",
   "Stationsnummer": 83220,
   "Latitud": 58.3565,
   "Longitud": 13.2537,
   "Aktiv": 1
 },
 {
   "Stationsnamn": "Skövde",
   "Stationsnummer": 83230,
   "Latitud": 58.3949,
   "Longitud": 13.8436,
   "Aktiv": 1
 },
 {
   "Stationsnamn": "Skara",
   "Stationsnummer": 83270,
   "Latitud": 58.4072,
   "Longitud": 13.4407,
   "Aktiv": 1
 },
 {
   "Stationsnamn": "Remningstorp",
   "Stationsnummer": 83280,
   "Latitud": 58.4529,
   "Longitud": 13.6671,
   "Aktiv": 1
 },
 {
   "Stationsnamn": "Lidköping",
   "Stationsnummer": 83320,
   "Latitud": 58.4835,
   "Longitud": 13.1479,
   "Aktiv": 1
 },
 {
   "Stationsnamn": "Traneberg",
   "Stationsnummer": 83400,
   "Latitud": 58.6607,
   "Longitud": 13.1507,
   "Aktiv": 1
 },
 {
   "Stationsnamn": "Naven A",
   "Stationsnummer": 83420,
   "Latitud": 58.6998,
   "Longitud": 13.1109,
   "Aktiv": 1
 },
 {
   "Stationsnamn": "Mariestad",
   "Stationsnummer": 83440,
   "Latitud": 58.7136,
   "Longitud": 13.823,
   "Aktiv": 1
 },
 {
   "Stationsnamn": "Värmlandsnäs-Ekenäs D",
   "Stationsnummer": 83550,
   "Latitud": 58.8973,
   "Longitud": 13.2384,
   "Aktiv": 1
 },
 {
   "Stationsnamn": "Högemålen D",
   "Stationsnummer": 84040,
   "Latitud": 58.0563,
   "Longitud": 14.5956,
   "Aktiv": 1
 },
 {
   "Stationsnamn": "Visingsö A",
   "Stationsnummer": 84050,
   "Latitud": 58.0951,
   "Longitud": 14.4086,
   "Aktiv": 1
 },
 {
   "Stationsnamn": "Ödeshög D",
   "Stationsnummer": 84140,
   "Latitud": 58.2546,
   "Longitud": 14.6584,
   "Aktiv": 1
 },
 {
   "Stationsnamn": "Hjo",
   "Stationsnummer": 84180,
   "Latitud": 58.3202,
   "Longitud": 14.3332,
   "Aktiv": 1
 },
 {
   "Stationsnamn": "Djursätra",
   "Stationsnummer": 84200,
   "Latitud": 58.3286,
   "Longitud": 14.0637,
   "Aktiv": 1
 },
 {
   "Stationsnamn": "Omberg D",
   "Stationsnummer": 84220,
   "Latitud": 58.3564,
   "Longitud": 14.6969,
   "Aktiv": 1
 },
 {
   "Stationsnamn": "Vadstena D",
   "Stationsnummer": 84270,
   "Latitud": 58.45,
   "Longitud": 14.8918,
   "Aktiv": 1
 },
 {
   "Stationsnamn": "Karlsborg Mo",
   "Stationsnummer": 84310,
   "Latitud": 58.514,
   "Longitud": 14.5102,
   "Aktiv": 1
 },
 {
   "Stationsnamn": "Axstål Mo",
   "Stationsnummer": 84340,
   "Latitud": 58.5719,
   "Longitud": 14.5722,
   "Aktiv": 1
 },
 {
   "Stationsnamn": "Fägre D",
   "Stationsnummer": 84390,
   "Latitud": 58.6444,
   "Longitud": 14.0659,
   "Aktiv": 1
 },
 {
   "Stationsnamn": "Älgarås D",
   "Stationsnummer": 84470,
   "Latitud": 58.7906,
   "Longitud": 14.3188,
   "Aktiv": 1
 },
 {
   "Stationsnamn": "Sörbytorp",
   "Stationsnummer": 84490,
   "Latitud": 58.8121,
   "Longitud": 14.6526,
   "Aktiv": 1
 },
 {
   "Stationsnamn": "Gårdsjö A",
   "Stationsnummer": 84520,
   "Latitud": 58.8772,
   "Longitud": 14.3903,
   "Aktiv": 1
 },
 {
   "Stationsnamn": "Gullspång",
   "Stationsnummer": 84590,
   "Latitud": 58.9863,
   "Longitud": 14.1101,
   "Aktiv": 1
 },
 {
   "Stationsnamn": "Malexander A",
   "Stationsnummer": 85050,
   "Latitud": 58.0718,
   "Longitud": 15.2359,
   "Aktiv": 1
 },
 {
   "Stationsnamn": "Ulrika",
   "Stationsnummer": 85070,
   "Latitud": 58.1282,
   "Longitud": 15.4353,
   "Aktiv": 1
 },
 {
   "Stationsnamn": "Boxholm D",
   "Stationsnummer": 85120,
   "Latitud": 58.2048,
   "Longitud": 15.0215,
   "Aktiv": 1
 },
 {
   "Stationsnamn": "Härsnäs",
   "Stationsnummer": 85180,
   "Latitud": 58.2886,
   "Longitud": 15.237,
   "Aktiv": 1
 },
 {
   "Stationsnamn": "Sya",
   "Stationsnummer": 85200,
   "Latitud": 58.325,
   "Longitud": 15.2247,
   "Aktiv": 1
 },
 {
   "Stationsnamn": "Malmslätt",
   "Stationsnummer": 85240,
   "Latitud": 58.4004,
   "Longitud": 15.5327,
   "Aktiv": 1
 },
 {
   "Stationsnamn": "Linköping D",
   "Stationsnummer": 85250,
   "Latitud": 58.4214,
   "Longitud": 15.7372,
   "Aktiv": 1
 },
 {
   "Stationsnamn": "Skärkind D",
   "Stationsnummer": 85280,
   "Latitud": 58.4855,
   "Longitud": 16.002,
   "Aktiv": 1
 },
 {
   "Stationsnamn": "Motala",
   "Stationsnummer": 85330,
   "Latitud": 58.5539,
   "Longitud": 15.0145,
   "Aktiv": 1
 },
 {
   "Stationsnamn": "Vånga D",
   "Stationsnummer": 85350,
   "Latitud": 58.588,
   "Longitud": 15.8142,
   "Aktiv": 1
 },
 {
   "Stationsnamn": "Kvarn Mo",
   "Stationsnummer": 85390,
   "Latitud": 58.6277,
   "Longitud": 15.4372,
   "Aktiv": 1
 },
 {
   "Stationsnamn": "Finspång",
   "Stationsnummer": 85430,
   "Latitud": 58.7017,
   "Longitud": 15.779,
   "Aktiv": 1
 },
 {
   "Stationsnamn": "Tjällmo D",
   "Stationsnummer": 85440,
   "Latitud": 58.7417,
   "Longitud": 15.3735,
   "Aktiv": 1
 },
 {
   "Stationsnamn": "Godegård D",
   "Stationsnummer": 85450,
   "Latitud": 58.7564,
   "Longitud": 15.1076,
   "Aktiv": 1
 },
 {
   "Stationsnamn": "Kettstaka A",
   "Stationsnummer": 85460,
   "Latitud": 58.7165,
   "Longitud": 15.03,
   "Aktiv": 1
 },
 {
   "Stationsnamn": "Zinkgruvan",
   "Stationsnummer": 85490,
   "Latitud": 58.8063,
   "Longitud": 15.1285,
   "Aktiv": 1
 },
 {
   "Stationsnamn": "Regna D",
   "Stationsnummer": 85530,
   "Latitud": 58.8595,
   "Longitud": 15.6973,
   "Aktiv": 1
 },
 {
   "Stationsnamn": "Hjortkvarn D",
   "Stationsnummer": 85540,
   "Latitud": 58.9313,
   "Longitud": 15.4479,
   "Aktiv": 1
 },
 {
   "Stationsnamn": "Tyllinge D",
   "Stationsnummer": 86010,
   "Latitud": 58.0207,
   "Longitud": 16.0824,
   "Aktiv": 1
 },
 {
   "Stationsnamn": "Tryserum D",
   "Stationsnummer": 86060,
   "Latitud": 58.1024,
   "Longitud": 16.7213,
   "Aktiv": 1
 },
 {
   "Stationsnamn": "Holmbo D",
   "Stationsnummer": 86120,
   "Latitud": 58.1944,
   "Longitud": 16.3635,
   "Aktiv": 1
 },
 {
   "Stationsnamn": "Börrum D",
   "Stationsnummer": 86220,
   "Latitud": 58.3521,
   "Longitud": 16.6256,
   "Aktiv": 1
 },
 {
   "Stationsnamn": "Gustorp D",
   "Stationsnummer": 86260,
   "Latitud": 58.4223,
   "Longitud": 16.1351,
   "Aktiv": 1
 },
 {
   "Stationsnamn": "Söderköping D",
   "Stationsnummer": 86290,
   "Latitud": 58.5018,
   "Longitud": 16.2834,
   "Aktiv": 1
 },
 {
   "Stationsnamn": "Östra Husby D",
   "Stationsnummer": 86320,
   "Latitud": 58.5373,
   "Longitud": 16.5655,
   "Aktiv": 1
 },
 {
   "Stationsnamn": "Hult D",
   "Stationsnummer": 86410,
   "Latitud": 58.6756,
   "Longitud": 16.1313,
   "Aktiv": 1
 },
 {
   "Stationsnamn": "Kolmården-Strömsfors A",
   "Stationsnummer": 86420,
   "Latitud": 58.6894,
   "Longitud": 16.3103,
   "Aktiv": 1
 },
 {
   "Stationsnamn": "Björkvik D",
   "Stationsnummer": 86500,
   "Latitud": 58.8205,
   "Longitud": 16.4998,
   "Aktiv": 1
 },
 {
   "Stationsnamn": "Glindran",
   "Stationsnummer": 86510,
   "Latitud": 58.8427,
   "Longitud": 16.419,
   "Aktiv": 1
 },
 {
   "Stationsnamn": "Vrena",
   "Stationsnummer": 86520,
   "Latitud": 58.8741,
   "Longitud": 16.6841,
   "Aktiv": 1
 },
 {
   "Stationsnamn": "Harstena A",
   "Stationsnummer": 87140,
   "Latitud": 58.2505,
   "Longitud": 17.0106,
   "Aktiv": 1
 },
 {
   "Stationsnamn": "Oxelösund",
   "Stationsnummer": 87400,
   "Latitud": 58.6777,
   "Longitud": 17.1223,
   "Aktiv": 1
 },
 {
   "Stationsnamn": "Landsort A",
   "Stationsnummer": 87440,
   "Latitud": 58.7433,
   "Longitud": 17.8716,
   "Aktiv": 1
 },
 {
   "Stationsnamn": "Landsort",
   "Stationsnummer": 87450,
   "Latitud": 58.743,
   "Longitud": 17.8699,
   "Aktiv": 1
 },
 {
   "Stationsnamn": "Tystberga D",
   "Stationsnummer": 87490,
   "Latitud": 58.8236,
   "Longitud": 17.3318,
   "Aktiv": 1
 },
 {
   "Stationsnamn": "Nynäshamn",
   "Stationsnummer": 87570,
   "Latitud": 58.9217,
   "Longitud": 17.9248,
   "Aktiv": 1
 },
 {
   "Stationsnamn": "Åda",
   "Stationsnummer": 87580,
   "Latitud": 58.9279,
   "Longitud": 17.5358,
   "Aktiv": 1
 },
 {
   "Stationsnamn": "Sjögärde",
   "Stationsnummer": 87590,
   "Latitud": 58.9752,
   "Longitud": 17.8411,
   "Aktiv": 1
 },
 {
   "Stationsnamn": "Aspa D",
   "Stationsnummer": 87600,
   "Latitud": 58.9277,
   "Longitud": 17.1048,
   "Aktiv": 1
 },
 {
   "Stationsnamn": "Vagnhärad D",
   "Stationsnummer": 87610,
   "Latitud": 58.9413,
   "Longitud": 17.4615,
   "Aktiv": 1
 },
 {
   "Stationsnamn": "Gotska Sandön A",
   "Stationsnummer": 89230,
   "Latitud": 58.3943,
   "Longitud": 19.1975,
   "Aktiv": 1
 },
 {
   "Stationsnamn": "Töcksfors D",
   "Stationsnummer": 91330,
   "Latitud": 59.5468,
   "Longitud": 11.8397,
   "Aktiv": 1
 },
 {
   "Stationsnamn": "Bengtsfors D",
   "Stationsnummer": 92040,
   "Latitud": 59.0459,
   "Longitud": 12.2326,
   "Aktiv": 1
 },
 {
   "Stationsnamn": "Säffle",
   "Stationsnummer": 92100,
   "Latitud": 59.1412,
   "Longitud": 12.9359,
   "Aktiv": 1
 },
 {
   "Stationsnamn": "Svaneholm D",
   "Stationsnummer": 92120,
   "Latitud": 59.1744,
   "Longitud": 12.501,
   "Aktiv": 1
 },
 {
   "Stationsnamn": "Blomskog A",
   "Stationsnummer": 92130,
   "Latitud": 59.2217,
   "Longitud": 12.078,
   "Aktiv": 1
 },
 {
   "Stationsnamn": "Sölje D",
   "Stationsnummer": 92290,
   "Latitud": 59.4846,
   "Longitud": 12.6959,
   "Aktiv": 1
 },
 {
   "Stationsnamn": "Årjäng",
   "Stationsnummer": 92380,
   "Latitud": 59.3833,
   "Longitud": 12.139,
   "Aktiv": 1
 },
 {
   "Stationsnamn": "Arvika A",
   "Stationsnummer": 92410,
   "Latitud": 59.6747,
   "Longitud": 12.6381,
   "Aktiv": 1
 },
 {
   "Stationsnamn": "Charlottenberg",
   "Stationsnummer": 92530,
   "Latitud": 59.8875,
   "Longitud": 12.3039,
   "Aktiv": 1
 },
 {
   "Stationsnamn": "Uddheden D",
   "Stationsnummer": 92570,
   "Latitud": 59.9437,
   "Longitud": 12.9134,
   "Aktiv": 1
 },
 {
   "Stationsnamn": "Grums",
   "Stationsnummer": 93200,
   "Latitud": 59.3499,
   "Longitud": 13.1107,
   "Aktiv": 1
 },
 {
   "Stationsnamn": "Väse D",
   "Stationsnummer": 93210,
   "Latitud": 59.3675,
   "Longitud": 13.8534,
   "Aktiv": 1
 },
 {
   "Stationsnamn": "Karlstad Flygplats",
   "Stationsnummer": 93220,
   "Latitud": 59.4446,
   "Longitud": 13.3374,
   "Aktiv": 1
 },
 {
   "Stationsnamn": "Gräsås D",
   "Stationsnummer": 93310,
   "Latitud": 59.5271,
   "Longitud": 13.9389,
   "Aktiv": 1
 },
 {
   "Stationsnamn": "Högboda",
   "Stationsnummer": 93350,
   "Latitud": 59.5762,
   "Longitud": 13.0279,
   "Aktiv": 1
 },
 {
   "Stationsnamn": "Dejefors",
   "Stationsnummer": 93370,
   "Latitud": 59.6082,
   "Longitud": 13.4776,
   "Aktiv": 1
 },
 {
   "Stationsnamn": "Östra Ämtervik",
   "Stationsnummer": 93440,
   "Latitud": 59.7406,
   "Longitud": 13.2136,
   "Aktiv": 1
 },
 {
   "Stationsnamn": "Munkfors",
   "Stationsnummer": 93500,
   "Latitud": 59.8482,
   "Longitud": 13.5415,
   "Aktiv": 1
 },
 {
   "Stationsnamn": "Sunne A",
   "Stationsnummer": 93520,
   "Latitud": 59.8644,
   "Longitud": 13.1193,
   "Aktiv": 1
 },
 {
   "Stationsnamn": "Åtorp",
   "Stationsnummer": 94050,
   "Latitud": 59.0966,
   "Longitud": 14.3678,
   "Aktiv": 1
 },
 {
   "Stationsnamn": "Degerfors D",
   "Stationsnummer": 94140,
   "Latitud": 59.1903,
   "Longitud": 14.3891,
   "Aktiv": 1
 },
 {
   "Stationsnamn": "Kristinehamn",
   "Stationsnummer": 94180,
   "Latitud": 59.3107,
   "Longitud": 14.1019,
   "Aktiv": 1
 },
 {
   "Stationsnamn": "Kilsbergen-Suttarboda A",
   "Stationsnummer": 94190,
   "Latitud": 59.3,
   "Longitud": 14.8986,
   "Aktiv": 1
 },
 {
   "Stationsnamn": "Karlskoga",
   "Stationsnummer": 94200,
   "Latitud": 59.3291,
   "Longitud": 14.5538,
   "Aktiv": 1
 },
 {
   "Stationsnamn": "Daglösen A",
   "Stationsnummer": 94390,
   "Latitud": 59.6616,
   "Longitud": 14.1831,
   "Aktiv": 1
 },
 {
   "Stationsnamn": "Grythyttan",
   "Stationsnummer": 94420,
   "Latitud": 59.7113,
   "Longitud": 14.5301,
   "Aktiv": 1
 },
 {
   "Stationsnamn": "Persberg",
   "Stationsnummer": 94450,
   "Latitud": 59.7494,
   "Longitud": 14.2582,
   "Aktiv": 1
 },
 {
   "Stationsnamn": "Silvergruvan",
   "Stationsnummer": 94510,
   "Latitud": 59.8482,
   "Longitud": 14.479,
   "Aktiv": 1
 },
 {
   "Stationsnamn": "Ställdalen",
   "Stationsnummer": 94580,
   "Latitud": 59.9391,
   "Longitud": 14.891,
   "Aktiv": 1
 },
 {
   "Stationsnamn": "Lesjöfors D",
   "Stationsnummer": 94590,
   "Latitud": 59.9785,
   "Longitud": 14.1799,
   "Aktiv": 1
 },
 {
   "Stationsnamn": "Vingåker D",
   "Stationsnummer": 95030,
   "Latitud": 59.0199,
   "Longitud": 15.981,
   "Aktiv": 1
 },
 {
   "Stationsnamn": "Asker D",
   "Stationsnummer": 95100,
   "Latitud": 59.1594,
   "Longitud": 15.4673,
   "Aktiv": 1
 },
 {
   "Stationsnamn": "Örebro A",
   "Stationsnummer": 95130,
   "Latitud": 59.2289,
   "Longitud": 15.0455,
   "Aktiv": 1
 },
 {
   "Stationsnamn": "Örebro D",
   "Stationsnummer": 95160,
   "Latitud": 59.2584,
   "Longitud": 15.2586,
   "Aktiv": 1
 },
 {
   "Stationsnamn": "Ön",
   "Stationsnummer": 95240,
   "Latitud": 59.4033,
   "Longitud": 15.1946,
   "Aktiv": 1
 },
 {
   "Stationsnamn": "Västvalla",
   "Stationsnummer": 95250,
   "Latitud": 59.417,
   "Longitud": 15.6145,
   "Aktiv": 1
 },
 {
   "Stationsnamn": "Nora D",
   "Stationsnummer": 95300,
   "Latitud": 59.5059,
   "Longitud": 15.0347,
   "Aktiv": 1
 },
 {
   "Stationsnamn": "Spannarboda D",
   "Stationsnummer": 95340,
   "Latitud": 59.5801,
   "Longitud": 15.502,
   "Aktiv": 1
 },
 {
   "Stationsnamn": "Kolsva D",
   "Stationsnummer": 95360,
   "Latitud": 59.5876,
   "Longitud": 15.9153,
   "Aktiv": 1
 },
 {
   "Stationsnamn": "Riddarhyttan",
   "Stationsnummer": 95490,
   "Latitud": 59.8089,
   "Longitud": 15.5391,
   "Aktiv": 1
 },
 {
   "Stationsnamn": "Kopparberg D",
   "Stationsnummer": 95520,
   "Latitud": 59.8597,
   "Longitud": 15.0479,
   "Aktiv": 1
 },
 {
   "Stationsnamn": "Kloten",
   "Stationsnummer": 95530,
   "Latitud": 59.8707,
   "Longitud": 15.2544,
   "Aktiv": 1
 },
 {
   "Stationsnamn": "Kloten A",
   "Stationsnummer": 95540,
   "Latitud": 59.8709,
   "Longitud": 15.2553,
   "Aktiv": 1
 },
 {
   "Stationsnamn": "Frändesta",
   "Stationsnummer": 96010,
   "Latitud": 59.0115,
   "Longitud": 16.8803,
   "Aktiv": 1
 },
 {
   "Stationsnamn": "Floda A",
   "Stationsnummer": 96040,
   "Latitud": 59.0561,
   "Longitud": 16.3975,
   "Aktiv": 1
 },
 {
   "Stationsnamn": "Sköldinge",
   "Stationsnummer": 96050,
   "Latitud": 59.0578,
   "Longitud": 16.4029,
   "Aktiv": 1
 },
 {
   "Stationsnamn": "Granhed D",
   "Stationsnummer": 96060,
   "Latitud": 59.1014,
   "Longitud": 16.4348,
   "Aktiv": 1
 },
 {
   "Stationsnamn": "Hälleforsnäs D",
   "Stationsnummer": 96090,
   "Latitud": 59.1567,
   "Longitud": 16.5092,
   "Aktiv": 1
 },
 {
   "Stationsnamn": "Näshulta",
   "Stationsnummer": 96110,
   "Latitud": 59.1952,
   "Longitud": 16.2795,
   "Aktiv": 1
 },
 {
   "Stationsnamn": "Västermo",
   "Stationsnummer": 96170,
   "Latitud": 59.2748,
   "Longitud": 16.0885,
   "Aktiv": 1
 },
 {
   "Stationsnamn": "Eskilstuna A",
   "Stationsnummer": 96190,
   "Latitud": 59.3832,
   "Longitud": 16.4549,
   "Aktiv": 1
 },
 {
   "Stationsnamn": "Hyndevad",
   "Stationsnummer": 96200,
   "Latitud": 59.3226,
   "Longitud": 16.4422,
   "Aktiv": 1
 },
 {
   "Stationsnamn": "Eskilstuna",
   "Stationsnummer": 96230,
   "Latitud": 59.3867,
   "Longitud": 16.4647,
   "Aktiv": 1
 },
 {
   "Stationsnamn": "Strängnäs-Vansö",
   "Stationsnummer": 96240,
   "Latitud": 59.3961,
   "Longitud": 16.9398,
   "Aktiv": 1
 },
 {
   "Stationsnamn": "Lida D",
   "Stationsnummer": 96250,
   "Latitud": 59.3658,
   "Longitud": 16.0158,
   "Aktiv": 1
 },
 {
   "Stationsnamn": "Västerås",
   "Stationsnummer": 96350,
   "Latitud": 59.5977,
   "Longitud": 16.6034,
   "Aktiv": 1
 },
 {
   "Stationsnamn": "ESOW",
   "Stationsnummer": 96356,
   "Latitud": 59.5888,
   "Longitud": 16.6299,
   "Aktiv": 1
 },
 {
   "Stationsnamn": "Hallstaberg",
   "Stationsnummer": 96390,
   "Latitud": 59.6545,
   "Longitud": 16.7995,
   "Aktiv": 1
 },
 {
   "Stationsnamn": "Skultuna",
   "Stationsnummer": 96440,
   "Latitud": 59.7141,
   "Longitud": 16.4362,
   "Aktiv": 1
 },
 {
   "Stationsnamn": "Sala",
   "Stationsnummer": 96550,
   "Latitud": 59.9045,
   "Longitud": 16.6607,
   "Aktiv": 1
 },
 {
   "Stationsnamn": "Sala A",
   "Stationsnummer": 96560,
   "Latitud": 59.9098,
   "Longitud": 16.6875,
   "Aktiv": 1
 },
 {
   "Stationsnamn": "Gnesta",
   "Stationsnummer": 97030,
   "Latitud": 59.095,
   "Longitud": 17.321,
   "Aktiv": 1
 },
 {
   "Stationsnamn": "Wiad",
   "Stationsnummer": 97070,
   "Latitud": 59.1116,
   "Longitud": 17.7219,
   "Aktiv": 1
 },
 {
   "Stationsnamn": "Tullinge A",
   "Stationsnummer": 97100,
   "Latitud": 59.1789,
   "Longitud": 17.9125,
   "Aktiv": 1
 },
 {
   "Stationsnamn": "Södertälje",
   "Stationsnummer": 97120,
   "Latitud": 59.2142,
   "Longitud": 17.6289,
   "Aktiv": 1
 },
 {
   "Stationsnamn": "Norsborg II",
   "Stationsnummer": 97160,
   "Latitud": 59.2524,
   "Longitud": 17.7989,
   "Aktiv": 1
 },
 {
   "Stationsnamn": "Mariefred",
   "Stationsnummer": 97170,
   "Latitud": 59.2661,
   "Longitud": 17.2342,
   "Aktiv": 1
 },
 {
   "Stationsnamn": "Stockholm-Bromma",
   "Stationsnummer": 97200,
   "Latitud": 59.3537,
   "Longitud": 17.9513,
   "Aktiv": 1
 },
 {
   "Stationsnamn": "Adelsö A",
   "Stationsnummer": 97280,
   "Latitud": 59.3582,
   "Longitud": 17.5244,
   "Aktiv": 1
 },
 {
   "Stationsnamn": "Ytterselö D",
   "Stationsnummer": 97290,
   "Latitud": 59.407,
   "Longitud": 17.2769,
   "Aktiv": 1
 },
 {
   "Stationsnamn": "Sätra Gård",
   "Stationsnummer": 97320,
   "Latitud": 59.5339,
   "Longitud": 17.8446,
   "Aktiv": 1
 },
 {
   "Stationsnamn": "Skjörby",
   "Stationsnummer": 97330,
   "Latitud": 59.5494,
   "Longitud": 17.3699,
   "Aktiv": 1
 },
 {
   "Stationsnamn": "Hacksta",
   "Stationsnummer": 97350,
   "Latitud": 59.5546,
   "Longitud": 17.0521,
   "Aktiv": 1
 },
 {
   "Stationsnamn": "Enköping Mo",
   "Stationsnummer": 97370,
   "Latitud": 59.6557,
   "Longitud": 17.1121,
   "Aktiv": 1
 },
 {
   "Stationsnamn": "Enköping",
   "Stationsnummer": 97380,
   "Latitud": 59.6407,
   "Longitud": 17.0697,
   "Aktiv": 1
 },
 {
   "Stationsnamn": "Uppsala Aut",
   "Stationsnummer": 97510,
   "Latitud": 59.8586,
   "Longitud": 17.6253,
   "Aktiv": 1
 },
 {
   "Stationsnamn": "Uppsala",
   "Stationsnummer": 97520,
   "Latitud": 59.8585,
   "Longitud": 17.6252,
   "Aktiv": 1
 },
 {
   "Stationsnamn": "Uppsala Flygplats",
   "Stationsnummer": 97530,
   "Latitud": 59.8953,
   "Longitud": 17.5935,
   "Aktiv": 1
 },
 {
   "Stationsnamn": "Vittinge",
   "Stationsnummer": 97540,
   "Latitud": 59.9007,
   "Longitud": 17.0263,
   "Aktiv": 1
 },
 {
   "Stationsnamn": "Berga Mo",
   "Stationsnummer": 98040,
   "Latitud": 59.0688,
   "Longitud": 18.1184,
   "Aktiv": 1
 },
 {
   "Stationsnamn": "Västerhaninge",
   "Stationsnummer": 98080,
   "Latitud": 59.1111,
   "Longitud": 18.1094,
   "Aktiv": 1
 },
 {
   "Stationsnamn": "Dalarö D",
   "Stationsnummer": 98090,
   "Latitud": 59.1342,
   "Longitud": 18.4142,
   "Aktiv": 1
 },
 {
   "Stationsnamn": "Nämdö",
   "Stationsnummer": 98110,
   "Latitud": 59.1146,
   "Longitud": 18.4352,
   "Aktiv": 1
 },
 {
   "Stationsnamn": "Stormyra",
   "Stationsnummer": 98140,
   "Latitud": 59.2032,
   "Longitud": 18.3308,
   "Aktiv": 1
 },
 {
   "Stationsnamn": "Sandhamn D",
   "Stationsnummer": 98170,
   "Latitud": 59.2899,
   "Longitud": 18.9146,
   "Aktiv": 1
 },
 {
   "Stationsnamn": "Djurö D",
   "Stationsnummer": 98190,
   "Latitud": 59.307,
   "Longitud": 18.6937,
   "Aktiv": 1
 },
 {
   "Stationsnamn": "Stockholm",
   "Stationsnummer": 98210,
   "Latitud": 59.342,
   "Longitud": 18.0575,
   "Aktiv": 1
 },
 {
   "Stationsnamn": "Stockholm A",
   "Stationsnummer": 98230,
   "Latitud": 59.3421,
   "Longitud": 18.0577,
   "Aktiv": 1
 },
 {
   "Stationsnamn": "Tranvik",
   "Stationsnummer": 98270,
   "Latitud": 59.4507,
   "Longitud": 18.5717,
   "Aktiv": 1
 },
 {
   "Stationsnamn": "Vallentuna",
   "Stationsnummer": 98310,
   "Latitud": 59.519,
   "Longitud": 18.0779,
   "Aktiv": 1
 },
 {
   "Stationsnamn": "Svanberga A",
   "Stationsnummer": 98490,
   "Latitud": 59.8321,
   "Longitud": 18.6348,
   "Aktiv": 1
 },
 {
   "Stationsnamn": "Norrveda",
   "Stationsnummer": 98500,
   "Latitud": 59.8298,
   "Longitud": 18.9524,
   "Aktiv": 1
 },
 {
   "Stationsnamn": "Almunge",
   "Stationsnummer": 98560,
   "Latitud": 59.9341,
   "Longitud": 18.0499,
   "Aktiv": 1
 },
 {
   "Stationsnamn": "Vällnora D",
   "Stationsnummer": 98570,
   "Latitud": 59.9562,
   "Longitud": 18.3461,
   "Aktiv": 1
 },
 {
   "Stationsnamn": "Svenska Högarna",
   "Stationsnummer": 99270,
   "Latitud": 59.4445,
   "Longitud": 19.5059,
   "Aktiv": 1
 },
 {
   "Stationsnamn": "Svenska högarna A",
   "Stationsnummer": 99280,
   "Latitud": 59.4428,
   "Longitud": 19.5058,
   "Aktiv": 1
 },
 {
   "Stationsnamn": "Söderarm A",
   "Stationsnummer": 99450,
   "Latitud": 59.7538,
   "Longitud": 19.4089,
   "Aktiv": 1
 },
 {
   "Stationsnamn": "Östmark-Åsarna",
   "Stationsnummer": 102170,
   "Latitud": 60.2788,
   "Longitud": 12.8538,
   "Aktiv": 1
 },
 {
   "Stationsnamn": "Kindsjön D",
   "Stationsnummer": 102400,
   "Latitud": 60.6591,
   "Longitud": 12.7103,
   "Aktiv": 1
 },
 {
   "Stationsnamn": "Letafors D",
   "Stationsnummer": 102440,
   "Latitud": 60.7397,
   "Longitud": 12.6989,
   "Aktiv": 1
 },
 {
   "Stationsnamn": "Tåsan",
   "Stationsnummer": 102460,
   "Latitud": 60.7658,
   "Longitud": 12.8493,
   "Aktiv": 1
 },
 {
   "Stationsnamn": "Höljes",
   "Stationsnummer": 102540,
   "Latitud": 60.9066,
   "Longitud": 12.5843,
   "Aktiv": 1
 },
 {
   "Stationsnamn": "Gustavsfors",
   "Stationsnummer": 103090,
   "Latitud": 60.1514,
   "Longitud": 13.7975,
   "Aktiv": 1
 },
 {
   "Stationsnamn": "Gustavsfors A",
   "Stationsnummer": 103100,
   "Latitud": 60.1538,
   "Longitud": 13.8019,
   "Aktiv": 1
 },
 {
   "Stationsnamn": "Andersviksberg",
   "Stationsnummer": 103220,
   "Latitud": 60.3694,
   "Longitud": 13.8749,
   "Aktiv": 1
 },
 {
   "Stationsnamn": "Stöllet D",
   "Stationsnummer": 103260,
   "Latitud": 60.411,
   "Longitud": 13.2693,
   "Aktiv": 1
 },
 {
   "Stationsnamn": "Malung",
   "Stationsnummer": 103410,
   "Latitud": 60.6717,
   "Longitud": 13.7058,
   "Aktiv": 1
 },
 {
   "Stationsnamn": "Malung A",
   "Stationsnummer": 103420,
   "Latitud": 60.6773,
   "Longitud": 13.71,
   "Aktiv": 1
 },
 {
   "Stationsnamn": "Öje D",
   "Stationsnummer": 103490,
   "Latitud": 60.8087,
   "Longitud": 13.8604,
   "Aktiv": 1
 },
 {
   "Stationsnamn": "Fredriksberg",
   "Stationsnummer": 104090,
   "Latitud": 60.1418,
   "Longitud": 14.2145,
   "Aktiv": 1
 },
 {
   "Stationsnamn": "Sågen D",
   "Stationsnummer": 104150,
   "Latitud": 60.2616,
   "Longitud": 14.137,
   "Aktiv": 1
 },
 {
   "Stationsnamn": "Nyhammar",
   "Stationsnummer": 104180,
   "Latitud": 60.2915,
   "Longitud": 14.9804,
   "Aktiv": 1
 },
 {
   "Stationsnamn": "Mockfjärd D",
   "Stationsnummer": 104300,
   "Latitud": 60.5082,
   "Longitud": 14.959,
   "Aktiv": 1
 },
 {
   "Stationsnamn": "Dala-Järna D",
   "Stationsnummer": 104320,
   "Latitud": 60.56,
   "Longitud": 14.366,
   "Aktiv": 1
 },
 {
   "Stationsnamn": "Gesunda D",
   "Stationsnummer": 104540,
   "Latitud": 60.8896,
   "Longitud": 14.5473,
   "Aktiv": 1
 },
 {
   "Stationsnamn": "Mora A",
   "Stationsnummer": 104580,
   "Latitud": 60.9607,
   "Longitud": 14.507,
   "Aktiv": 1
 },
 {
   "Stationsnamn": "Söderbärke D",
   "Stationsnummer": 105040,
   "Latitud": 60.064,
   "Longitud": 15.5713,
   "Aktiv": 1
 },
 {
   "Stationsnamn": "Norberg",
   "Stationsnummer": 105060,
   "Latitud": 60.0652,
   "Longitud": 15.9111,
   "Aktiv": 1
 },
 {
   "Stationsnamn": "Ludvika",
   "Stationsnummer": 105100,
   "Latitud": 60.1415,
   "Longitud": 15.1759,
   "Aktiv": 1
 },
 {
   "Stationsnamn": "Stora Spånsberget A",
   "Stationsnummer": 105220,
   "Latitud": 60.3822,
   "Longitud": 15.1404,
   "Aktiv": 1
 },
 {
   "Stationsnamn": "Stora Skedvi",
   "Stationsnummer": 105250,
   "Latitud": 60.41,
   "Longitud": 15.7422,
   "Aktiv": 1
 },
 {
   "Stationsnamn": "Borlänge Flygplats",
   "Stationsnummer": 105260,
   "Latitud": 60.4294,
   "Longitud": 15.5079,
   "Aktiv": 1
 },
 {
   "Stationsnamn": "Borlänge D",
   "Stationsnummer": 105310,
   "Latitud": 60.492,
   "Longitud": 15.4274,
   "Aktiv": 1
 },
 {
   "Stationsnamn": "Falun-Lugnet",
   "Stationsnummer": 105370,
   "Latitud": 60.619,
   "Longitud": 15.6603,
   "Aktiv": 1
 },
 {
   "Stationsnamn": "Hillersboda",
   "Stationsnummer": 105390,
   "Latitud": 60.7074,
   "Longitud": 15.9392,
   "Aktiv": 1
 },
 {
   "Stationsnamn": "Leksand",
   "Stationsnummer": 105450,
   "Latitud": 60.7256,
   "Longitud": 15.0167,
   "Aktiv": 1
 },
 {
   "Stationsnamn": "Bjursås",
   "Stationsnummer": 105470,
   "Latitud": 60.7438,
   "Longitud": 15.4625,
   "Aktiv": 1
 },
 {
   "Stationsnamn": "Tänger D",
   "Stationsnummer": 105500,
   "Latitud": 60.8149,
   "Longitud": 15.761,
   "Aktiv": 1
 },
 {
   "Stationsnamn": "Brovallen",
   "Stationsnummer": 106040,
   "Latitud": 60.0991,
   "Longitud": 16.3062,
   "Aktiv": 1
 },
 {
   "Stationsnamn": "Avesta",
   "Stationsnummer": 106070,
   "Latitud": 60.1419,
   "Longitud": 16.1747,
   "Aktiv": 1
 },
 {
   "Stationsnamn": "Tärnsjö D",
   "Stationsnummer": 106120,
   "Latitud": 60.1321,
   "Longitud": 16.9483,
   "Aktiv": 1
 },
 {
   "Stationsnamn": "Kerstinbo A",
   "Stationsnummer": 106160,
   "Latitud": 60.2688,
   "Longitud": 16.977,
   "Aktiv": 1
 },
 {
   "Stationsnamn": "Österfärnebo",
   "Stationsnummer": 106180,
   "Latitud": 60.3048,
   "Longitud": 16.805,
   "Aktiv": 1
 },
 {
   "Stationsnamn": "Långshyttan D",
   "Stationsnummer": 106280,
   "Latitud": 60.4612,
   "Longitud": 16.062,
   "Aktiv": 1
 },
 {
   "Stationsnamn": "Torsåker D",
   "Stationsnummer": 106290,
   "Latitud": 60.5022,
   "Longitud": 16.4813,
   "Aktiv": 1
 },
 {
   "Stationsnamn": "Hofors",
   "Stationsnummer": 106330,
   "Latitud": 60.5403,
   "Longitud": 16.292,
   "Aktiv": 1
 },
 {
   "Stationsnamn": "Gästrike-Hammarby D",
   "Stationsnummer": 106360,
   "Latitud": 60.5648,
   "Longitud": 16.586,
   "Aktiv": 1
 },
 {
   "Stationsnamn": "Kungsberget D",
   "Stationsnummer": 106460,
   "Latitud": 60.7651,
   "Longitud": 16.4679,
   "Aktiv": 1
 },
 {
   "Stationsnamn": "Ockelbo",
   "Stationsnummer": 106540,
   "Latitud": 60.8982,
   "Longitud": 16.7376,
   "Aktiv": 1
 },
 {
   "Stationsnamn": "Åmot A",
   "Stationsnummer": 106570,
   "Latitud": 60.962,
   "Longitud": 16.4311,
   "Aktiv": 1
 },
 {
   "Stationsnamn": "Vattholma D",
   "Stationsnummer": 107010,
   "Latitud": 60.0289,
   "Longitud": 17.7243,
   "Aktiv": 1
 },
 {
   "Stationsnamn": "Björklinge D",
   "Stationsnummer": 107040,
   "Latitud": 60.0401,
   "Longitud": 17.5573,
   "Aktiv": 1
 },
 {
   "Stationsnamn": "Östervåla D",
   "Stationsnummer": 107100,
   "Latitud": 60.1744,
   "Longitud": 17.2298,
   "Aktiv": 1
 },
 {
   "Stationsnamn": "Films Kyrkby D",
   "Stationsnummer": 107130,
   "Latitud": 60.2357,
   "Longitud": 17.9072,
   "Aktiv": 1
 },
 {
   "Stationsnamn": "Films Kyrkby A",
   "Stationsnummer": 107140,
   "Latitud": 60.2363,
   "Longitud": 17.9078,
   "Aktiv": 1
 },
 {
   "Stationsnamn": "Hedesunda",
   "Stationsnummer": 107230,
   "Latitud": 60.4058,
   "Longitud": 17.0221,
   "Aktiv": 1
 },
 {
   "Stationsnamn": "Lövsta",
   "Stationsnummer": 107250,
   "Latitud": 60.4086,
   "Longitud": 17.884,
   "Aktiv": 1
 },
 {
   "Stationsnamn": "Älvkarleby D",
   "Stationsnummer": 107340,
   "Latitud": 60.5653,
   "Longitud": 17.4632,
   "Aktiv": 1
 },
 {
   "Stationsnamn": "Gävle A",
   "Stationsnummer": 107420,
   "Latitud": 60.7166,
   "Longitud": 17.1641,
   "Aktiv": 1
 },
 {
   "Stationsnamn": "Gävle-Åbyggeby",
   "Stationsnummer": 107430,
   "Latitud": 60.7285,
   "Longitud": 17.1132,
   "Aktiv": 1
 },
 {
   "Stationsnamn": "Norrby S",
   "Stationsnummer": 108040,
   "Latitud": 60.0623,
   "Longitud": 18.7422,
   "Aktiv": 1
 },
 {
   "Stationsnamn": "Risinge",
   "Stationsnummer": 108110,
   "Latitud": 60.175,
   "Longitud": 18.2272,
   "Aktiv": 1
 },
 {
   "Stationsnamn": "Söderby-Karlsäng D",
   "Stationsnummer": 108180,
   "Latitud": 60.293,
   "Longitud": 18.4507,
   "Aktiv": 1
 },
 {
   "Stationsnamn": "Örskär A",
   "Stationsnummer": 108320,
   "Latitud": 60.5262,
   "Longitud": 18.3766,
   "Aktiv": 1
 },
 {
   "Stationsnamn": "Löten D",
   "Stationsnummer": 112020,
   "Latitud": 61.0255,
   "Longitud": 12.8399,
   "Aktiv": 1
 },
 {
   "Stationsnamn": "Storbron",
   "Stationsnummer": 112230,
   "Latitud": 61.3868,
   "Longitud": 12.8585,
   "Aktiv": 1
 },
 {
   "Stationsnamn": "Gördalen D",
   "Stationsnummer": 112360,
   "Latitud": 61.5951,
   "Longitud": 12.5003,
   "Aktiv": 1
 },
 {
   "Stationsnamn": "Idre D",
   "Stationsnummer": 112520,
   "Latitud": 61.8591,
   "Longitud": 12.7286,
   "Aktiv": 1
 },
 {
   "Stationsnamn": "Mångsbodarna",
   "Stationsnummer": 113050,
   "Latitud": 61.0804,
   "Longitud": 13.6189,
   "Aktiv": 1
 },
 {
   "Stationsnamn": "Trängslet",
   "Stationsnummer": 113230,
   "Latitud": 61.3804,
   "Longitud": 13.7273,
   "Aktiv": 1
 },
 {
   "Stationsnamn": "Nornäs D",
   "Stationsnummer": 113260,
   "Latitud": 61.4306,
   "Longitud": 13.2296,
   "Aktiv": 1
 },
 {
   "Stationsnamn": "Särna D",
   "Stationsnummer": 113410,
   "Latitud": 61.6912,
   "Longitud": 13.1866,
   "Aktiv": 1
 },
 {
   "Stationsnamn": "Orsa D",
   "Stationsnummer": 114070,
   "Latitud": 61.1306,
   "Longitud": 14.638,
   "Aktiv": 1
 },
 {
   "Stationsnamn": "Våmhus D",
   "Stationsnummer": 114080,
   "Latitud": 61.1364,
   "Longitud": 14.42,
   "Aktiv": 1
 },
 {
   "Stationsnamn": "Skattungbyn D",
   "Stationsnummer": 114120,
   "Latitud": 61.1988,
   "Longitud": 14.868,
   "Aktiv": 1
 },
 {
   "Stationsnamn": "Älvdalen A",
   "Stationsnummer": 114140,
   "Latitud": 61.2542,
   "Longitud": 14.0383,
   "Aktiv": 1
 },
 {
   "Stationsnamn": "Ulvsjö",
   "Stationsnummer": 114360,
   "Latitud": 61.6022,
   "Longitud": 14.1847,
   "Aktiv": 1
 },
 {
   "Stationsnamn": "Lillhamra D",
   "Stationsnummer": 114390,
   "Latitud": 61.642,
   "Longitud": 14.7998,
   "Aktiv": 1
 },
 {
   "Stationsnamn": "Hamra A",
   "Stationsnummer": 114410,
   "Latitud": 61.6606,
   "Longitud": 14.9948,
   "Aktiv": 1
 },
 {
   "Stationsnamn": "Fågelsjö D",
   "Stationsnummer": 114480,
   "Latitud": 61.7984,
   "Longitud": 14.6477,
   "Aktiv": 1
 },
 {
   "Stationsnamn": "Lillhärdal",
   "Stationsnummer": 114510,
   "Latitud": 61.8547,
   "Longitud": 14.0921,
   "Aktiv": 1
 },
 {
   "Stationsnamn": "Finnbacka D",
   "Stationsnummer": 115030,
   "Latitud": 61.0566,
   "Longitud": 15.5777,
   "Aktiv": 1
 },
 {
   "Stationsnamn": "Östanvik D",
   "Stationsnummer": 115100,
   "Latitud": 61.1684,
   "Longitud": 15.2223,
   "Aktiv": 1
 },
 {
   "Stationsnamn": "Edsbyn A",
   "Stationsnummer": 115220,
   "Latitud": 61.3613,
   "Longitud": 15.7175,
   "Aktiv": 1
 },
 {
   "Stationsnamn": "Lobonäs D",
   "Stationsnummer": 115320,
   "Latitud": 61.5338,
   "Longitud": 15.3444,
   "Aktiv": 1
 },
 {
   "Stationsnamn": "Los D",
   "Stationsnummer": 115450,
   "Latitud": 61.7256,
   "Longitud": 15.1783,
   "Aktiv": 1
 },
 {
   "Stationsnamn": "Föne D",
   "Stationsnummer": 115500,
   "Latitud": 61.8302,
   "Longitud": 15.8253,
   "Aktiv": 1
 },
 {
   "Stationsnamn": "Härnebo",
   "Stationsnummer": 116070,
   "Latitud": 61.1326,
   "Longitud": 16.7458,
   "Aktiv": 1
 },
 {
   "Stationsnamn": "Kilafors D",
   "Stationsnummer": 116150,
   "Latitud": 61.2489,
   "Longitud": 16.5572,
   "Aktiv": 1
 },
 {
   "Stationsnamn": "Bergvik",
   "Stationsnummer": 116160,
   "Latitud": 61.2602,
   "Longitud": 16.835,
   "Aktiv": 1
 },
 {
   "Stationsnamn": "Söderala D",
   "Stationsnummer": 116170,
   "Latitud": 61.295,
   "Longitud": 16.9548,
   "Aktiv": 1
 },
 {
   "Stationsnamn": "Bollnäs D",
   "Stationsnummer": 116250,
   "Latitud": 61.4173,
   "Longitud": 16.373,
   "Aktiv": 1
 },
 {
   "Stationsnamn": "Simeå",
   "Stationsnummer": 116340,
   "Latitud": 61.5706,
   "Longitud": 16.3277,
   "Aktiv": 1
 },
 {
   "Stationsnamn": "Nianfors",
   "Stationsnummer": 116360,
   "Latitud": 61.6021,
   "Longitud": 16.7726,
   "Aktiv": 1
 },
 {
   "Stationsnamn": "Järvsö",
   "Stationsnummer": 116430,
   "Latitud": 61.7111,
   "Longitud": 16.1667,
   "Aktiv": 1
 },
 {
   "Stationsnamn": "Delsbo A",
   "Stationsnummer": 116490,
   "Latitud": 61.8271,
   "Longitud": 16.5418,
   "Aktiv": 1
 },
 {
   "Stationsnamn": "Kuggören A",
   "Stationsnummer": 117430,
   "Latitud": 61.7033,
   "Longitud": 17.525,
   "Aktiv": 1
 },
 {
   "Stationsnamn": "Hudiksvall",
   "Stationsnummer": 117440,
   "Latitud": 61.7167,
   "Longitud": 17.086,
   "Aktiv": 1
 },
 {
   "Stationsnamn": "Bergsjö",
   "Stationsnummer": 117570,
   "Latitud": 61.9488,
   "Longitud": 17.0669,
   "Aktiv": 1
 },
 {
   "Stationsnamn": "Myskelåsen D",
   "Stationsnummer": 122200,
   "Latitud": 62.3335,
   "Longitud": 12.647,
   "Aktiv": 1
 },
 {
   "Stationsnamn": "Tännäs A",
   "Stationsnummer": 122260,
   "Latitud": 62.4502,
   "Longitud": 12.6702,
   "Aktiv": 1
 },
 {
   "Stationsnamn": "Medskogen",
   "Stationsnummer": 122270,
   "Latitud": 62.443,
   "Longitud": 12.9673,
   "Aktiv": 1
 },
 {
   "Stationsnamn": "Ljusnedal",
   "Stationsnummer": 122330,
   "Latitud": 62.5493,
   "Longitud": 12.6043,
   "Aktiv": 1
 },
 {
   "Stationsnamn": "Malmagen",
   "Stationsnummer": 122370,
   "Latitud": 62.6094,
   "Longitud": 12.1605,
   "Aktiv": 1
 },
 {
   "Stationsnamn": "Ljungdalen",
   "Stationsnummer": 122510,
   "Latitud": 62.8543,
   "Longitud": 12.807,
   "Aktiv": 1
 },
 {
   "Stationsnamn": "Häggberget D",
   "Stationsnummer": 123020,
   "Latitud": 62.031,
   "Longitud": 13.0879,
   "Aktiv": 1
 },
 {
   "Stationsnamn": "Dravagen A",
   "Stationsnummer": 123060,
   "Latitud": 62.0943,
   "Longitud": 13.6115,
   "Aktiv": 1
 },
 {
   "Stationsnamn": "Hedeviken",
   "Stationsnummer": 123340,
   "Latitud": 62.4112,
   "Longitud": 13.6748,
   "Aktiv": 1
 },
 {
   "Stationsnamn": "Börtnan A",
   "Stationsnummer": 123460,
   "Latitud": 62.7557,
   "Longitud": 13.8456,
   "Aktiv": 1
 },
 {
   "Stationsnamn": "Sveg A",
   "Stationsnummer": 124030,
   "Latitud": 62.0471,
   "Longitud": 14.41,
   "Aktiv": 1
 },
 {
   "Stationsnamn": "Ytterberg D",
   "Stationsnummer": 124040,
   "Latitud": 62.0673,
   "Longitud": 14.4944,
   "Aktiv": 1
 },
 {
   "Stationsnamn": "Ytterhogdal",
   "Stationsnummer": 124110,
   "Latitud": 62.1825,
   "Longitud": 14.9508,
   "Aktiv": 1
 },
 {
   "Stationsnamn": "Rätan",
   "Stationsnummer": 124280,
   "Latitud": 62.4845,
   "Longitud": 14.544,
   "Aktiv": 1
 },
 {
   "Stationsnamn": "Handsjön D",
   "Stationsnummer": 124290,
   "Latitud": 62.4768,
   "Longitud": 14.8009,
   "Aktiv": 1
 },
 {
   "Stationsnamn": "Klövsjöhöjden A",
   "Stationsnummer": 124300,
   "Latitud": 62.4961,
   "Longitud": 14.1571,
   "Aktiv": 1
 },
 {
   "Stationsnamn": "Åsarna D",
   "Stationsnummer": 124400,
   "Latitud": 62.66,
   "Longitud": 14.3556,
   "Aktiv": 1
 },
 {
   "Stationsnamn": "Dödre",
   "Stationsnummer": 124480,
   "Latitud": 62.7923,
   "Longitud": 14.687,
   "Aktiv": 1
 },
 {
   "Stationsnamn": "Hennan D",
   "Stationsnummer": 125030,
   "Latitud": 62.0313,
   "Longitud": 15.9127,
   "Aktiv": 1
 },
 {
   "Stationsnamn": "Ramsjö",
   "Stationsnummer": 125110,
   "Latitud": 62.1843,
   "Longitud": 15.6508,
   "Aktiv": 1
 },
 {
   "Stationsnamn": "Kölsillre",
   "Stationsnummer": 125240,
   "Latitud": 62.3986,
   "Longitud": 15.2137,
   "Aktiv": 1
 },
 {
   "Stationsnamn": "Rotnäset D",
   "Stationsnummer": 125250,
   "Latitud": 62.4001,
   "Longitud": 15.4417,
   "Aktiv": 1
 },
 {
   "Stationsnamn": "Ånge-Parteboda D",
   "Stationsnummer": 125310,
   "Latitud": 62.5257,
   "Longitud": 15.7694,
   "Aktiv": 1
 },
 {
   "Stationsnamn": "Hunge A",
   "Stationsnummer": 125440,
   "Latitud": 62.7512,
   "Longitud": 15.0876,
   "Aktiv": 1
 },
 {
   "Stationsnamn": "Mälgåsen D",
   "Stationsnummer": 125510,
   "Latitud": 62.8513,
   "Longitud": 15.329,
   "Aktiv": 1
 },
 {
   "Stationsnamn": "Sänningstjärn D",
   "Stationsnummer": 126080,
   "Latitud": 62.1376,
   "Longitud": 16.8676,
   "Aktiv": 1
 },
 {
   "Stationsnamn": "Ljusdals-Valsjön",
   "Stationsnummer": 126120,
   "Latitud": 62.195,
   "Longitud": 16.0367,
   "Aktiv": 1
 },
 {
   "Stationsnamn": "Ulvsjön D",
   "Stationsnummer": 126170,
   "Latitud": 62.2713,
   "Longitud": 16.4328,
   "Aktiv": 1
 },
 {
   "Stationsnamn": "Västerlo D",
   "Stationsnummer": 126250,
   "Latitud": 62.4133,
   "Longitud": 16.6573,
   "Aktiv": 1
 },
 {
   "Stationsnamn": "Torpshammar A",
   "Stationsnummer": 126290,
   "Latitud": 62.4943,
   "Longitud": 16.2774,
   "Aktiv": 1
 },
 {
   "Stationsnamn": "Öraåtjärnarna D",
   "Stationsnummer": 126430,
   "Latitud": 62.7165,
   "Longitud": 16.1775,
   "Aktiv": 1
 },
 {
   "Stationsnamn": "Kälarne",
   "Stationsnummer": 126580,
   "Latitud": 62.9628,
   "Longitud": 16.1075,
   "Aktiv": 1
 },
 {
   "Stationsnamn": "Åsnorrbodarna",
   "Stationsnummer": 127090,
   "Latitud": 62.1492,
   "Longitud": 17.1724,
   "Aktiv": 1
 },
 {
   "Stationsnamn": "Brämön A",
   "Stationsnummer": 127130,
   "Latitud": 62.2207,
   "Longitud": 17.7426,
   "Aktiv": 1
 },
 {
   "Stationsnamn": "Sidsjö D",
   "Stationsnummer": 127220,
   "Latitud": 62.3806,
   "Longitud": 17.2855,
   "Aktiv": 1
 },
 {
   "Stationsnamn": "Sundsvalls Flygplats",
   "Stationsnummer": 127310,
   "Latitud": 62.5246,
   "Longitud": 17.441,
   "Aktiv": 1
 },
 {
   "Stationsnamn": "Stordalen-Midlanda D",
   "Stationsnummer": 127320,
   "Latitud": 62.53,
   "Longitud": 17.4129,
   "Aktiv": 1
 },
 {
   "Stationsnamn": "Härnösand",
   "Stationsnummer": 127380,
   "Latitud": 62.628,
   "Longitud": 17.9471,
   "Aktiv": 1
 },
 {
   "Stationsnamn": "Höglandsbodarna D",
   "Stationsnummer": 127390,
   "Latitud": 62.6336,
   "Longitud": 17.4146,
   "Aktiv": 1
 },
 {
   "Stationsnamn": "Gåltjärn",
   "Stationsnummer": 127480,
   "Latitud": 62.7958,
   "Longitud": 17.5538,
   "Aktiv": 1
 },
 {
   "Stationsnamn": "Kramfors",
   "Stationsnummer": 127560,
   "Latitud": 62.929,
   "Longitud": 17.7636,
   "Aktiv": 1
 },
 {
   "Stationsnamn": "Åkroken D",
   "Stationsnummer": 127570,
   "Latitud": 62.938,
   "Longitud": 17.2411,
   "Aktiv": 1
 },
 {
   "Stationsnamn": "Lungö A",
   "Stationsnummer": 128390,
   "Latitud": 62.6431,
   "Longitud": 18.0929,
   "Aktiv": 1
 },
 {
   "Stationsnamn": "Nora-Östanö D",
   "Stationsnummer": 128500,
   "Latitud": 62.8599,
   "Longitud": 18.1795,
   "Aktiv": 1
 },
 {
   "Stationsnamn": "Ullånger",
   "Stationsnummer": 128590,
   "Latitud": 63.0132,
   "Longitud": 18.188,
   "Aktiv": 1
 },
 {
   "Stationsnamn": "Storlien-Storvallen A",
   "Stationsnummer": 132170,
   "Latitud": 63.2831,
   "Longitud": 12.1246,
   "Aktiv": 1
 },
 {
   "Stationsnamn": "Storlien-Storvallen",
   "Stationsnummer": 132180,
   "Latitud": 63.2825,
   "Longitud": 12.1222,
   "Aktiv": 1
 },
 {
   "Stationsnamn": "Medstugan",
   "Stationsnummer": 132320,
   "Latitud": 63.5269,
   "Longitud": 12.4037,
   "Aktiv": 1
 },
 {
   "Stationsnamn": "Digernäset D",
   "Stationsnummer": 132370,
   "Latitud": 63.624,
   "Longitud": 12.9206,
   "Aktiv": 1
 },
 {
   "Stationsnamn": "Sandnäs",
   "Stationsnummer": 132450,
   "Latitud": 63.7552,
   "Longitud": 12.4316,
   "Aktiv": 1
 },
 {
   "Stationsnamn": "Edevik",
   "Stationsnummer": 132590,
   "Latitud": 63.9812,
   "Longitud": 12.8709,
   "Aktiv": 1
 },
 {
   "Stationsnamn": "Höglekardalen",
   "Stationsnummer": 133050,
   "Latitud": 63.0796,
   "Longitud": 13.7529,
   "Aktiv": 1
 },
 {
   "Stationsnamn": "Vallbo",
   "Stationsnummer": 133100,
   "Latitud": 63.1569,
   "Longitud": 13.0726,
   "Aktiv": 1
 },
 {
   "Stationsnamn": "Mörsil",
   "Stationsnummer": 133190,
   "Latitud": 63.3193,
   "Longitud": 13.6488,
   "Aktiv": 1
 },
 {
   "Stationsnamn": "Järpströmmen",
   "Stationsnummer": 133240,
   "Latitud": 63.3915,
   "Longitud": 13.388,
   "Aktiv": 1
 },
 {
   "Stationsnamn": "Kaxås-Åflo D",
   "Stationsnummer": 133300,
   "Latitud": 63.4935,
   "Longitud": 13.8797,
   "Aktiv": 1
 },
 {
   "Stationsnamn": "Bottnen",
   "Stationsnummer": 133410,
   "Latitud": 63.6769,
   "Longitud": 13.3699,
   "Aktiv": 1
 },
 {
   "Stationsnamn": "Olden D",
   "Stationsnummer": 133420,
   "Latitud": 63.6964,
   "Longitud": 13.6504,
   "Aktiv": 1
 },
 {
   "Stationsnamn": "Korsvattnet A",
   "Stationsnummer": 133500,
   "Latitud": 63.8395,
   "Longitud": 13.5037,
   "Aktiv": 1
 },
 {
   "Stationsnamn": "Tandsbyn D",
   "Stationsnummer": 134000,
   "Latitud": 63.0092,
   "Longitud": 14.7184,
   "Aktiv": 1
 },
 {
   "Stationsnamn": "Marby D",
   "Stationsnummer": 134070,
   "Latitud": 63.122,
   "Longitud": 14.2939,
   "Aktiv": 1
 },
 {
   "Stationsnamn": "Norderön",
   "Stationsnummer": 134090,
   "Latitud": 63.1618,
   "Longitud": 14.3692,
   "Aktiv": 1
 },
 {
   "Stationsnamn": "Frösön",
   "Stationsnummer": 134110,
   "Latitud": 63.1974,
   "Longitud": 14.4863,
   "Aktiv": 1
 },
 {
   "Stationsnamn": "Litsnäset",
   "Stationsnummer": 134170,
   "Latitud": 63.3089,
   "Longitud": 14.7065,
   "Aktiv": 1
 },
 {
   "Stationsnamn": "Tullus D",
   "Stationsnummer": 134190,
   "Latitud": 63.3085,
   "Longitud": 14.3174,
   "Aktiv": 1
 },
 {
   "Stationsnamn": "Långan D",
   "Stationsnummer": 134270,
   "Latitud": 63.4555,
   "Longitud": 14.4859,
   "Aktiv": 1
 },
 {
   "Stationsnamn": "Lundsjön",
   "Stationsnummer": 134310,
   "Latitud": 63.5195,
   "Longitud": 14.5261,
   "Aktiv": 1
 },
 {
   "Stationsnamn": "Föllinge A",
   "Stationsnummer": 134410,
   "Latitud": 63.677,
   "Longitud": 14.6079,
   "Aktiv": 1
 },
 {
   "Stationsnamn": "Almdalen",
   "Stationsnummer": 134590,
   "Latitud": 63.9967,
   "Longitud": 14.6701,
   "Aktiv": 1
 },
 {
   "Stationsnamn": "Västerövsjö D",
   "Stationsnummer": 135020,
   "Latitud": 63.0421,
   "Longitud": 15.9347,
   "Aktiv": 1
 },
 {
   "Stationsnamn": "Rissna D",
   "Stationsnummer": 135040,
   "Latitud": 63.0593,
   "Longitud": 15.3441,
   "Aktiv": 1
 },
 {
   "Stationsnamn": "Borgvattnet D",
   "Stationsnummer": 135260,
   "Latitud": 63.4248,
   "Longitud": 15.8283,
   "Aktiv": 1
 },
 {
   "Stationsnamn": "Hammerdal D",
   "Stationsnummer": 135350,
   "Latitud": 63.575,
   "Longitud": 15.3685,
   "Aktiv": 1
 },
 {
   "Stationsnamn": "Hallhåxåsen A",
   "Stationsnummer": 135460,
   "Latitud": 63.7695,
   "Longitud": 15.331,
   "Aktiv": 1
 },
 {
   "Stationsnamn": "Strömsund-Edet D",
   "Stationsnummer": 135550,
   "Latitud": 63.9157,
   "Longitud": 15.3181,
   "Aktiv": 1
 },
 {
   "Stationsnamn": "Lövberga D",
   "Stationsnummer": 135580,
   "Latitud": 63.9664,
   "Longitud": 15.8533,
   "Aktiv": 1
 },
 {
   "Stationsnamn": "Bispgården",
   "Stationsnummer": 136020,
   "Latitud": 63.0295,
   "Longitud": 16.6232,
   "Aktiv": 1
 },
 {
   "Stationsnamn": "Krångede A",
   "Stationsnummer": 136090,
   "Latitud": 63.1521,
   "Longitud": 16.1733,
   "Aktiv": 1
 },
 {
   "Stationsnamn": "Edsele",
   "Stationsnummer": 136240,
   "Latitud": 63.4047,
   "Longitud": 16.55,
   "Aktiv": 1
 },
 {
   "Stationsnamn": "Näsåker",
   "Stationsnummer": 136260,
   "Latitud": 63.4188,
   "Longitud": 16.9563,
   "Aktiv": 1
 },
 {
   "Stationsnamn": "Storfinnforsen",
   "Stationsnummer": 136360,
   "Latitud": 63.595,
   "Longitud": 16.1846,
   "Aktiv": 1
 },
 {
   "Stationsnamn": "Junsele A",
   "Stationsnummer": 136410,
   "Latitud": 63.6849,
   "Longitud": 16.9531,
   "Aktiv": 1
 },
 {
   "Stationsnamn": "Backe D",
   "Stationsnummer": 136490,
   "Latitud": 63.8148,
   "Longitud": 16.4058,
   "Aktiv": 1
 },
 {
   "Stationsnamn": "Rossön",
   "Stationsnummer": 136560,
   "Latitud": 63.9351,
   "Longitud": 16.3731,
   "Aktiv": 1
 },
 {
   "Stationsnamn": "Forse",
   "Stationsnummer": 137080,
   "Latitud": 63.1466,
   "Longitud": 17.0262,
   "Aktiv": 1
 },
 {
   "Stationsnamn": "Multrå D",
   "Stationsnummer": 137090,
   "Latitud": 63.1681,
   "Longitud": 17.4192,
   "Aktiv": 1
 },
 {
   "Stationsnamn": "Sollefteå",
   "Stationsnummer": 137100,
   "Latitud": 63.1748,
   "Longitud": 17.2314,
   "Aktiv": 1
 },
 {
   "Stationsnamn": "Lännäs",
   "Stationsnummer": 137110,
   "Latitud": 63.1663,
   "Longitud": 17.6543,
   "Aktiv": 1
 },
 {
   "Stationsnamn": "Resele",
   "Stationsnummer": 137200,
   "Latitud": 63.3279,
   "Longitud": 17.0676,
   "Aktiv": 1
 },
 {
   "Stationsnamn": "Aspeå",
   "Stationsnummer": 137220,
   "Latitud": 63.4002,
   "Longitud": 17.4947,
   "Aktiv": 1
 },
 {
   "Stationsnamn": "Myckelgensjö",
   "Stationsnummer": 137350,
   "Latitud": 63.5772,
   "Longitud": 17.5898,
   "Aktiv": 1
 },
 {
   "Stationsnamn": "Västmarkum A",
   "Stationsnummer": 138070,
   "Latitud": 63.1251,
   "Longitud": 18.2555,
   "Aktiv": 1
 },
 {
   "Stationsnamn": "Örnsköldsvik",
   "Stationsnummer": 138180,
   "Latitud": 63.2963,
   "Longitud": 18.7217,
   "Aktiv": 1
 },
 {
   "Stationsnamn": "Bredbyn D",
   "Stationsnummer": 138270,
   "Latitud": 63.4612,
   "Longitud": 18.0717,
   "Aktiv": 1
 },
 {
   "Stationsnamn": "Hattsjöbäcken D",
   "Stationsnummer": 138360,
   "Latitud": 63.5918,
   "Longitud": 18.9539,
   "Aktiv": 1
 },
 {
   "Stationsnamn": "Hemling A",
   "Stationsnummer": 138390,
   "Latitud": 63.6513,
   "Longitud": 18.5502,
   "Aktiv": 1
 },
 {
   "Stationsnamn": "Södersel D",
   "Stationsnummer": 138450,
   "Latitud": 63.747,
   "Longitud": 18.1689,
   "Aktiv": 1
 },
 {
   "Stationsnamn": "Skagsudde A",
   "Stationsnummer": 139120,
   "Latitud": 63.1886,
   "Longitud": 19.0202,
   "Aktiv": 1
 },
 {
   "Stationsnamn": "Järnäsklubb A",
   "Stationsnummer": 139260,
   "Latitud": 63.4359,
   "Longitud": 19.6768,
   "Aktiv": 1
 },
 {
   "Stationsnamn": "Torrböle D",
   "Stationsnummer": 139420,
   "Latitud": 63.7076,
   "Longitud": 19.5932,
   "Aktiv": 1
 },
 {
   "Stationsnamn": "Nordanbäck D",
   "Stationsnummer": 139440,
   "Latitud": 63.7424,
   "Longitud": 19.2951,
   "Aktiv": 1
 },
 {
   "Stationsnamn": "Vännäs D",
   "Stationsnummer": 139540,
   "Latitud": 63.9226,
   "Longitud": 19.8144,
   "Aktiv": 1
 },
 {
   "Stationsnamn": "Balsjö D",
   "Stationsnummer": 139570,
   "Latitud": 63.9206,
   "Longitud": 19.0703,
   "Aktiv": 1
 },
 {
   "Stationsnamn": "Holmön A",
   "Stationsnummer": 140460,
   "Latitud": 63.8082,
   "Longitud": 20.8692,
   "Aktiv": 1
 },
 {
   "Stationsnamn": "Holmön D",
   "Stationsnummer": 140470,
   "Latitud": 63.7918,
   "Longitud": 20.8606,
   "Aktiv": 1
 },
 {
   "Stationsnamn": "Umeå Flygplats",
   "Stationsnummer": 140480,
   "Latitud": 63.7947,
   "Longitud": 20.2918,
   "Aktiv": 1
 },
 {
   "Stationsnamn": "Röbäcksdalen",
   "Stationsnummer": 140490,
   "Latitud": 63.813,
   "Longitud": 20.2398,
   "Aktiv": 1
 },
 {
   "Stationsnamn": "Jormlien",
   "Stationsnummer": 143440,
   "Latitud": 64.7306,
   "Longitud": 13.986,
   "Aktiv": 1
 },
 {
   "Stationsnamn": "Valsjön",
   "Stationsnummer": 144040,
   "Latitud": 64.0645,
   "Longitud": 14.1341,
   "Aktiv": 1
 },
 {
   "Stationsnamn": "Frostviken D",
   "Stationsnummer": 144220,
   "Latitud": 64.3866,
   "Longitud": 14.3169,
   "Aktiv": 1
 },
 {
   "Stationsnamn": "Håkafot D",
   "Stationsnummer": 144230,
   "Latitud": 64.3914,
   "Longitud": 14.3913,
   "Aktiv": 1
 },
 {
   "Stationsnamn": "Fågelberget D",
   "Stationsnummer": 144240,
   "Latitud": 64.3891,
   "Longitud": 14.5261,
   "Aktiv": 1
 },
 {
   "Stationsnamn": "Gäddede A",
   "Stationsnummer": 144310,
   "Latitud": 64.5057,
   "Longitud": 14.2238,
   "Aktiv": 1
 },
 {
   "Stationsnamn": "Ankarvattnet D",
   "Stationsnummer": 144530,
   "Latitud": 64.8779,
   "Longitud": 14.2293,
   "Aktiv": 1
 },
 {
   "Stationsnamn": "Leipikvattnet",
   "Stationsnummer": 144560,
   "Latitud": 64.9298,
   "Longitud": 14.1592,
   "Aktiv": 1
 },
 {
   "Stationsnamn": "Hillsand",
   "Stationsnummer": 145090,
   "Latitud": 64.1102,
   "Longitud": 15.3168,
   "Aktiv": 1
 },
 {
   "Stationsnamn": "Gubbhögen A",
   "Stationsnummer": 145130,
   "Latitud": 64.2182,
   "Longitud": 15.5561,
   "Aktiv": 1
 },
 {
   "Stationsnamn": "Kyrktåsjö D",
   "Stationsnummer": 145150,
   "Latitud": 64.2485,
   "Longitud": 15.8478,
   "Aktiv": 1
 },
 {
   "Stationsnamn": "Högland D",
   "Stationsnummer": 145340,
   "Latitud": 64.5812,
   "Longitud": 15.8792,
   "Aktiv": 1
 },
 {
   "Stationsnamn": "Avasjö-Borgafjäll D",
   "Stationsnummer": 145500,
   "Latitud": 64.8366,
   "Longitud": 15.0918,
   "Aktiv": 1
 },
 {
   "Stationsnamn": "Stalon II",
   "Stationsnummer": 145570,
   "Latitud": 64.9451,
   "Longitud": 15.8364,
   "Aktiv": 1
 },
 {
   "Stationsnamn": "Hoting A",
   "Stationsnummer": 146050,
   "Latitud": 64.0885,
   "Longitud": 16.2388,
   "Aktiv": 1
 },
 {
   "Stationsnamn": "Vilhelmina A",
   "Stationsnummer": 146350,
   "Latitud": 64.5809,
   "Longitud": 16.8421,
   "Aktiv": 1
 },
 {
   "Stationsnamn": "Laxbäcken",
   "Stationsnummer": 146380,
   "Latitud": 64.6389,
   "Longitud": 16.4142,
   "Aktiv": 1
 },
 {
   "Stationsnamn": "Ytterrissjö D",
   "Stationsnummer": 147020,
   "Latitud": 64.0302,
   "Longitud": 17.777,
   "Aktiv": 1
 },
 {
   "Stationsnamn": "Åsele A",
   "Stationsnummer": 147090,
   "Latitud": 64.1661,
   "Longitud": 17.3188,
   "Aktiv": 1
 },
 {
   "Stationsnamn": "Åsele",
   "Stationsnummer": 147100,
   "Latitud": 64.159,
   "Longitud": 17.3494,
   "Aktiv": 1
 },
 {
   "Stationsnamn": "Latikberg D",
   "Stationsnummer": 147390,
   "Latitud": 64.6434,
   "Longitud": 17.0866,
   "Aktiv": 1
 },
 {
   "Stationsnamn": "Gunnarn A",
   "Stationsnummer": 147560,
   "Latitud": 65.0106,
   "Longitud": 17.7034,
   "Aktiv": 1
 },
 {
   "Stationsnamn": "Fredrika A",
   "Stationsnummer": 148040,
   "Latitud": 64.0753,
   "Longitud": 18.3656,
   "Aktiv": 1
 },
 {
   "Stationsnamn": "Granträsk D",
   "Stationsnummer": 148200,
   "Latitud": 64.3346,
   "Longitud": 18.3756,
   "Aktiv": 1
 },
 {
   "Stationsnamn": "Lycksele A",
   "Stationsnummer": 148330,
   "Latitud": 64.5492,
   "Longitud": 18.7169,
   "Aktiv": 1
 },
 {
   "Stationsnamn": "Bäverträsk",
   "Stationsnummer": 148370,
   "Latitud": 64.6179,
   "Longitud": 18.3387,
   "Aktiv": 1
 },
 {
   "Stationsnamn": "Rusksele D",
   "Stationsnummer": 148490,
   "Latitud": 64.8166,
   "Longitud": 18.8886,
   "Aktiv": 1
 },
 {
   "Stationsnamn": "Norrby",
   "Stationsnummer": 148550,
   "Latitud": 64.9238,
   "Longitud": 18.2404,
   "Aktiv": 1
 },
 {
   "Stationsnamn": "Vindeln-Sunnansjönäs",
   "Stationsnummer": 149120,
   "Latitud": 64.1386,
   "Longitud": 19.7618,
   "Aktiv": 1
 },
 {
   "Stationsnamn": "Granö D",
   "Stationsnummer": 149150,
   "Latitud": 64.2517,
   "Longitud": 19.3127,
   "Aktiv": 1
 },
 {
   "Stationsnamn": "Malkälen D",
   "Stationsnummer": 149230,
   "Latitud": 64.3918,
   "Longitud": 19.6903,
   "Aktiv": 1
 },
 {
   "Stationsnamn": "Petisträsk A",
   "Stationsnummer": 149340,
   "Latitud": 64.5669,
   "Longitud": 19.6983,
   "Aktiv": 1
 },
 {
   "Stationsnamn": "Brännforssund",
   "Stationsnummer": 149390,
   "Latitud": 64.6517,
   "Longitud": 19.3708,
   "Aktiv": 1
 },
 {
   "Stationsnamn": "Kalvträsk D",
   "Stationsnummer": 149400,
   "Latitud": 64.6703,
   "Longitud": 19.8082,
   "Aktiv": 1
 },
 {
   "Stationsnamn": "Talliden",
   "Stationsnummer": 149470,
   "Latitud": 64.7781,
   "Longitud": 19.3679,
   "Aktiv": 1
 },
 {
   "Stationsnamn": "Norsjö",
   "Stationsnummer": 149540,
   "Latitud": 64.9093,
   "Longitud": 19.4746,
   "Aktiv": 1
 },
 {
   "Stationsnamn": "Norsjö A",
   "Stationsnummer": 149560,
   "Latitud": 64.9263,
   "Longitud": 19.3782,
   "Aktiv": 1
 },
 {
   "Stationsnamn": "Tavelsjö D",
   "Stationsnummer": 150020,
   "Latitud": 64.0406,
   "Longitud": 20.0758,
   "Aktiv": 1
 },
 {
   "Stationsnamn": "Brände",
   "Stationsnummer": 150200,
   "Latitud": 64.334,
   "Longitud": 20.9608,
   "Aktiv": 1
 },
 {
   "Stationsnamn": "Bygdsiljum D",
   "Stationsnummer": 150210,
   "Latitud": 64.3681,
   "Longitud": 20.4841,
   "Aktiv": 1
 },
 {
   "Stationsnamn": "Grönliden",
   "Stationsnummer": 150440,
   "Latitud": 64.7301,
   "Longitud": 20.1927,
   "Aktiv": 1
 },
 {
   "Stationsnamn": "Holmfors D",
   "Stationsnummer": 150460,
   "Latitud": 64.7855,
   "Longitud": 20.5185,
   "Aktiv": 1
 },
 {
   "Stationsnamn": "Kåge",
   "Stationsnummer": 150500,
   "Latitud": 64.8386,
   "Longitud": 20.9406,
   "Aktiv": 1
 },
 {
   "Stationsnamn": "Kusmark D",
   "Stationsnummer": 150530,
   "Latitud": 64.8846,
   "Longitud": 20.8323,
   "Aktiv": 1
 },
 {
   "Stationsnamn": "Bjuröklubb A",
   "Stationsnummer": 151280,
   "Latitud": 64.4812,
   "Longitud": 21.5791,
   "Aktiv": 1
 },
 {
   "Stationsnamn": "Kittelfjäll D",
   "Stationsnummer": 155770,
   "Latitud": 65.2574,
   "Longitud": 15.5269,
   "Aktiv": 1
 },
 {
   "Stationsnamn": "Gielas A",
   "Stationsnummer": 155790,
   "Latitud": 65.328,
   "Longitud": 15.0686,
   "Aktiv": 1
 },
 {
   "Stationsnamn": "Boksjö",
   "Stationsnummer": 155900,
   "Latitud": 65.6772,
   "Longitud": 15.8245,
   "Aktiv": 1
 },
 {
   "Stationsnamn": "Hemavan D",
   "Stationsnummer": 155940,
   "Latitud": 65.8224,
   "Longitud": 15.0885,
   "Aktiv": 1
 },
 {
   "Stationsnamn": "Bastansjö D",
   "Stationsnummer": 156230,
   "Latitud": 65.3819,
   "Longitud": 16.1966,
   "Aktiv": 1
 },
 {
   "Stationsnamn": "Dajkanvik",
   "Stationsnummer": 156740,
   "Latitud": 65.1444,
   "Longitud": 16.3,
   "Aktiv": 1
 },
 {
   "Stationsnamn": "Blaiken D",
   "Stationsnummer": 156780,
   "Latitud": 65.2511,
   "Longitud": 16.857,
   "Aktiv": 1
 },
 {
   "Stationsnamn": "Nordanås",
   "Stationsnummer": 156840,
   "Latitud": 65.4635,
   "Longitud": 16.0904,
   "Aktiv": 1
 },
 {
   "Stationsnamn": "Fjällsjönäs",
   "Stationsnummer": 156880,
   "Latitud": 65.6242,
   "Longitud": 16.6077,
   "Aktiv": 1
 },
 {
   "Stationsnamn": "Sadiliden",
   "Stationsnummer": 157750,
   "Latitud": 65.1709,
   "Longitud": 17.8199,
   "Aktiv": 1
 },
 {
   "Stationsnamn": "Gargnäs D",
   "Stationsnummer": 157790,
   "Latitud": 65.3263,
   "Longitud": 17.9505,
   "Aktiv": 1
 },
 {
   "Stationsnamn": "Sorsele",
   "Stationsnummer": 157860,
   "Latitud": 65.5354,
   "Longitud": 17.5225,
   "Aktiv": 1
 },
 {
   "Stationsnamn": "Buresjön A",
   "Stationsnummer": 157870,
   "Latitud": 65.5592,
   "Longitud": 17.86,
   "Aktiv": 1
 },
 {
   "Stationsnamn": "Klippen D",
   "Stationsnummer": 157970,
   "Latitud": 65.8969,
   "Longitud": 17.1093,
   "Aktiv": 1
 },
 {
   "Stationsnamn": "Vaxborg",
   "Stationsnummer": 157980,
   "Latitud": 65.9451,
   "Longitud": 17.4821,
   "Aktiv": 1
 },
 {
   "Stationsnamn": "Malå-Brännan A",
   "Stationsnummer": 158740,
   "Latitud": 65.1522,
   "Longitud": 18.5974,
   "Aktiv": 1
 },
 {
   "Stationsnamn": "Malå",
   "Stationsnummer": 158750,
   "Latitud": 65.1808,
   "Longitud": 18.7431,
   "Aktiv": 1
 },
 {
   "Stationsnamn": "Adak D",
   "Stationsnummer": 158820,
   "Latitud": 65.383,
   "Longitud": 18.6201,
   "Aktiv": 1
 },
 {
   "Stationsnamn": "Arjeplog-Myrheden D",
   "Stationsnummer": 158980,
   "Latitud": 65.9799,
   "Longitud": 18.2287,
   "Aktiv": 1
 },
 {
   "Stationsnamn": "Abraur",
   "Stationsnummer": 158990,
   "Latitud": 65.9867,
   "Longitud": 18.9236,
   "Aktiv": 1
 },
 {
   "Stationsnamn": "Långträsk D",
   "Stationsnummer": 159760,
   "Latitud": 65.1953,
   "Longitud": 19.249,
   "Aktiv": 1
 },
 {
   "Stationsnamn": "Glommersträsk",
   "Stationsnummer": 159770,
   "Latitud": 65.278,
   "Longitud": 19.6673,
   "Aktiv": 1
 },
 {
   "Stationsnamn": "Arvidsjaur A",
   "Stationsnummer": 159880,
   "Latitud": 65.5953,
   "Longitud": 19.2682,
   "Aktiv": 1
 },
 {
   "Stationsnamn": "Jörn D",
   "Stationsnummer": 160710,
   "Latitud": 65.0971,
   "Longitud": 20.1072,
   "Aktiv": 1
 },
 {
   "Stationsnamn": "Koler D",
   "Stationsnummer": 160850,
   "Latitud": 65.504,
   "Longitud": 20.4675,
   "Aktiv": 1
 },
 {
   "Stationsnamn": "Vidsel",
   "Stationsnummer": 160960,
   "Latitud": 65.8801,
   "Longitud": 20.1315,
   "Aktiv": 1
 },
 {
   "Stationsnamn": "Vidsel Mo",
   "Stationsnummer": 160970,
   "Latitud": 65.8769,
   "Longitud": 20.1543,
   "Aktiv": 1
 },
 {
   "Stationsnamn": "Pite-Rönnskär A",
   "Stationsnummer": 161710,
   "Latitud": 65.035,
   "Longitud": 21.5655,
   "Aktiv": 1
 },
 {
   "Stationsnamn": "Piteå",
   "Stationsnummer": 161790,
   "Latitud": 65.2636,
   "Longitud": 21.4776,
   "Aktiv": 1
 },
 {
   "Stationsnamn": "Klöverträsk D",
   "Stationsnummer": 161900,
   "Latitud": 65.636,
   "Longitud": 21.4173,
   "Aktiv": 1
 },
 {
   "Stationsnamn": "Älvsbyn A",
   "Stationsnummer": 161910,
   "Latitud": 65.6702,
   "Longitud": 21.0662,
   "Aktiv": 1
 },
 {
   "Stationsnamn": "Brännberg D",
   "Stationsnummer": 161930,
   "Latitud": 65.7938,
   "Longitud": 21.26,
   "Aktiv": 1
 },
 {
   "Stationsnamn": "Boden Mo",
   "Stationsnummer": 161940,
   "Latitud": 65.8151,
   "Longitud": 21.6396,
   "Aktiv": 1
 },
 {
   "Stationsnamn": "Rödkallen A",
   "Stationsnummer": 162790,
   "Latitud": 65.3131,
   "Longitud": 22.3753,
   "Aktiv": 1
 },
 {
   "Stationsnamn": "Luleå Flygplats",
   "Stationsnummer": 162860,
   "Latitud": 65.5434,
   "Longitud": 22.1193,
   "Aktiv": 1
 },
 {
   "Stationsnamn": "Luleå-Bergnäset",
   "Stationsnummer": 162870,
   "Latitud": 65.5762,
   "Longitud": 22.109,
   "Aktiv": 1
 },
 {
   "Stationsnamn": "Storön A",
   "Stationsnummer": 163900,
   "Latitud": 65.6982,
   "Longitud": 23.1005,
   "Aktiv": 1
 },
 {
   "Stationsnamn": "Kalix D",
   "Stationsnummer": 163940,
   "Latitud": 65.838,
   "Longitud": 23.2026,
   "Aktiv": 1
 },
 {
   "Stationsnamn": "Haparanda D",
   "Stationsnummer": 163950,
   "Latitud": 65.8567,
   "Longitud": 24.1118,
   "Aktiv": 1
 },
 {
   "Stationsnamn": "Haparanda A",
   "Stationsnummer": 163960,
   "Latitud": 65.8249,
   "Longitud": 24.1162,
   "Aktiv": 1
 },
 {
   "Stationsnamn": "Mjölkbäcken",
   "Stationsnummer": 164730,
   "Latitud": 66.1041,
   "Longitud": 14.8503,
   "Aktiv": 1
 },
 {
   "Stationsnamn": "Jäckvik",
   "Stationsnummer": 166810,
   "Latitud": 66.3881,
   "Longitud": 16.9763,
   "Aktiv": 1
 },
 {
   "Stationsnamn": "Mierkenis A",
   "Stationsnummer": 166910,
   "Latitud": 66.6815,
   "Longitud": 16.1088,
   "Aktiv": 1
 },
 {
   "Stationsnamn": "Arjeplog A",
   "Stationsnummer": 167710,
   "Latitud": 66.0526,
   "Longitud": 17.8434,
   "Aktiv": 1
 },
 {
   "Stationsnamn": "Svartberget D",
   "Stationsnummer": 167790,
   "Latitud": 66.3239,
   "Longitud": 17.321,
   "Aktiv": 1
 },
 {
   "Stationsnamn": "Kvikkjokk-Årrenjarka",
   "Stationsnummer": 167980,
   "Latitud": 66.8834,
   "Longitud": 18.0226,
   "Aktiv": 1
 },
 {
   "Stationsnamn": "Kvikkjokk-Årrenjarka A",
   "Stationsnummer": 167990,
   "Latitud": 66.8888,
   "Longitud": 18.0234,
   "Aktiv": 1
 },
 {
   "Stationsnamn": "Tjåkaape Mo",
   "Stationsnummer": 169790,
   "Latitud": 66.3002,
   "Longitud": 19.2,
   "Aktiv": 1
 },
 {
   "Stationsnamn": "Jokkmokk",
   "Stationsnummer": 169880,
   "Latitud": 66.6135,
   "Longitud": 19.8316,
   "Aktiv": 1
 },
 {
   "Stationsnamn": "Harads D",
   "Stationsnummer": 170670,
   "Latitud": 66.0805,
   "Longitud": 20.968,
   "Aktiv": 1
 },
 {
   "Stationsnamn": "Puottaure",
   "Stationsnummer": 170760,
   "Latitud": 66.1861,
   "Longitud": 20.2534,
   "Aktiv": 1
 },
 {
   "Stationsnamn": "Murjek D",
   "Stationsnummer": 170850,
   "Latitud": 66.4771,
   "Longitud": 20.9263,
   "Aktiv": 1
 },
 {
   "Stationsnamn": "Jokkmokk Flygplats Mo",
   "Stationsnummer": 170860,
   "Latitud": 66.499,
   "Longitud": 20.131,
   "Aktiv": 1
 },
 {
   "Stationsnamn": "Nattavaara A",
   "Stationsnummer": 170930,
   "Latitud": 66.7529,
   "Longitud": 20.9281,
   "Aktiv": 1
 },
 {
   "Stationsnamn": "Sörbyn",
   "Stationsnummer": 171720,
   "Latitud": 66.0531,
   "Longitud": 21.7851,
   "Aktiv": 1
 },
 {
   "Stationsnamn": "Lakaträsk A",
   "Stationsnummer": 171790,
   "Latitud": 66.2801,
   "Longitud": 21.133,
   "Aktiv": 1
 },
 {
   "Stationsnamn": "Skröven D",
   "Stationsnummer": 171930,
   "Latitud": 66.7757,
   "Longitud": 21.8444,
   "Aktiv": 1
 },
 {
   "Stationsnamn": "Sadjem D",
   "Stationsnummer": 171990,
   "Latitud": 66.9615,
   "Longitud": 21.2324,
   "Aktiv": 1
 },
 {
   "Stationsnamn": "Överkalix-Svartbyn A",
   "Stationsnummer": 172770,
   "Latitud": 66.263,
   "Longitud": 22.8472,
   "Aktiv": 1
 },
 {
   "Stationsnamn": "Talljärv D",
   "Stationsnummer": 172780,
   "Latitud": 66.2512,
   "Longitud": 22.309,
   "Aktiv": 1
 },
 {
   "Stationsnamn": "Rödupp",
   "Stationsnummer": 172840,
   "Latitud": 66.4585,
   "Longitud": 22.7855,
   "Aktiv": 1
 },
 {
   "Stationsnamn": "Markusvinsa",
   "Stationsnummer": 172920,
   "Latitud": 66.7265,
   "Longitud": 22.9001,
   "Aktiv": 1
 },
 {
   "Stationsnamn": "Paharova A",
   "Stationsnummer": 172940,
   "Latitud": 66.8107,
   "Longitud": 22.336,
   "Aktiv": 1
 },
 {
   "Stationsnamn": "Karungi",
   "Stationsnummer": 173710,
   "Latitud": 66.0438,
   "Longitud": 23.9765,
   "Aktiv": 1
 },
 {
   "Stationsnamn": "Kypäsjärvi D",
   "Stationsnummer": 173760,
   "Latitud": 66.1937,
   "Longitud": 23.2295,
   "Aktiv": 1
 },
 {
   "Stationsnamn": "Övertorneå",
   "Stationsnummer": 173810,
   "Latitud": 66.3862,
   "Longitud": 23.622,
   "Aktiv": 1
 },
 {
   "Stationsnamn": "Svanstein",
   "Stationsnummer": 173890,
   "Latitud": 66.6538,
   "Longitud": 23.864,
   "Aktiv": 1
 },
 {
   "Stationsnamn": "Ylinenjärvi A",
   "Stationsnummer": 173900,
   "Latitud": 66.6235,
   "Longitud": 23.468,
   "Aktiv": 1
 },
 {
   "Stationsnamn": "Jarhois",
   "Stationsnummer": 173980,
   "Latitud": 66.9534,
   "Longitud": 23.8404,
   "Aktiv": 1
 },
 {
   "Stationsnamn": "Ritsem A",
   "Stationsnummer": 177930,
   "Latitud": 67.7262,
   "Longitud": 17.4711,
   "Aktiv": 1
 },
 {
   "Stationsnamn": "Björkudden",
   "Stationsnummer": 178820,
   "Latitud": 67.3956,
   "Longitud": 18.7156,
   "Aktiv": 1
 },
 {
   "Stationsnamn": "Stora Sjöfallet A",
   "Stationsnummer": 178860,
   "Latitud": 67.4964,
   "Longitud": 18.2943,
   "Aktiv": 1
 },
 {
   "Stationsnamn": "Tarfala A",
   "Stationsnummer": 178970,
   "Latitud": 67.9113,
   "Longitud": 18.6068,
   "Aktiv": 1
 },
 {
   "Stationsnamn": "Nikkaluokta A",
   "Stationsnummer": 179960,
   "Latitud": 67.8542,
   "Longitud": 19.0253,
   "Aktiv": 1
 },
 {
   "Stationsnamn": "Malmberget",
   "Stationsnummer": 180750,
   "Latitud": 67.1681,
   "Longitud": 20.6389,
   "Aktiv": 1
 },
 {
   "Stationsnamn": "Gällivare A",
   "Stationsnummer": 180760,
   "Latitud": 67.1421,
   "Longitud": 20.6455,
   "Aktiv": 1
 },
 {
   "Stationsnamn": "Latnivaara A",
   "Stationsnummer": 180770,
   "Latitud": 67.2564,
   "Longitud": 20.2747,
   "Aktiv": 1
 },
 {
   "Stationsnamn": "Jukkasjärvi D",
   "Stationsnummer": 180950,
   "Latitud": 67.8532,
   "Longitud": 20.5793,
   "Aktiv": 1
 },
 {
   "Stationsnamn": "Parakka",
   "Stationsnummer": 181850,
   "Latitud": 67.4864,
   "Longitud": 21.6687,
   "Aktiv": 1
 },
 {
   "Stationsnamn": "Svappavaara",
   "Stationsnummer": 181890,
   "Latitud": 67.6536,
   "Longitud": 21.0525,
   "Aktiv": 1
 },
 {
   "Stationsnamn": "Vittangi",
   "Stationsnummer": 181900,
   "Latitud": 67.6943,
   "Longitud": 21.6335,
   "Aktiv": 1
 },
 {
   "Stationsnamn": "Esrange",
   "Stationsnummer": 181970,
   "Latitud": 67.8911,
   "Longitud": 21.0846,
   "Aktiv": 1
 },
 {
   "Stationsnamn": "Tärendö D",
   "Stationsnummer": 182740,
   "Latitud": 67.1661,
   "Longitud": 22.6287,
   "Aktiv": 1
 },
 {
   "Stationsnamn": "Saittarova D",
   "Stationsnummer": 182800,
   "Latitud": 67.3345,
   "Longitud": 22.2433,
   "Aktiv": 1
 },
 {
   "Stationsnamn": "Saittarova A",
   "Stationsnummer": 182810,
   "Latitud": 67.3376,
   "Longitud": 22.2334,
   "Aktiv": 1
 },
 {
   "Stationsnamn": "Kangos D",
   "Stationsnummer": 182850,
   "Latitud": 67.4954,
   "Longitud": 22.6647,
   "Aktiv": 1
 },
 {
   "Stationsnamn": "Keräntöjärvi",
   "Stationsnummer": 182890,
   "Latitud": 67.6375,
   "Longitud": 22.9211,
   "Aktiv": 1
 },
 {
   "Stationsnamn": "Parkalompolo A",
   "Stationsnummer": 182910,
   "Latitud": 67.7315,
   "Longitud": 22.8266,
   "Aktiv": 1
 },
 {
   "Stationsnamn": "Lainio",
   "Stationsnummer": 182930,
   "Latitud": 67.7615,
   "Longitud": 22.3518,
   "Aktiv": 1
 },
 {
   "Stationsnamn": "Pajala A",
   "Stationsnummer": 183750,
   "Latitud": 67.2049,
   "Longitud": 23.3952,
   "Aktiv": 1
 },
 {
   "Stationsnamn": "Parkajoki",
   "Stationsnummer": 183920,
   "Latitud": 67.7314,
   "Longitud": 23.486,
   "Aktiv": 1
 },
 {
   "Stationsnamn": "Abisko",
   "Stationsnummer": 188800,
   "Latitud": 68.3557,
   "Longitud": 18.8206,
   "Aktiv": 1
 },
 {
   "Stationsnamn": "Katterjåkk",
   "Stationsnummer": 188820,
   "Latitud": 68.4218,
   "Longitud": 18.1698,
   "Aktiv": 1
 },
 {
   "Stationsnamn": "Katterjåkk A",
   "Stationsnummer": 188850,
   "Latitud": 68.4217,
   "Longitud": 18.1719,
   "Aktiv": 1
 },
 {
   "Stationsnamn": "Rensjön A",
   "Stationsnummer": 189720,
   "Latitud": 68.0745,
   "Longitud": 19.8392,
   "Aktiv": 1
 },
 {
   "Stationsnamn": "Övre Soppero",
   "Stationsnummer": 191730,
   "Latitud": 68.0916,
   "Longitud": 21.7003,
   "Aktiv": 1
 },
 {
   "Stationsnamn": "Naimakka A",
   "Stationsnummer": 191910,
   "Latitud": 68.6777,
   "Longitud": 21.5274,
   "Aktiv": 1
 },
 {
   "Stationsnamn": "Saarikoski D",
   "Stationsnummer": 191940,
   "Latitud": 68.805,
   "Longitud": 21.2529,
   "Aktiv": 1
 },
 {
   "Stationsnamn": "Lannavaara D",
   "Stationsnummer": 192710,
   "Latitud": 68.0487,
   "Longitud": 21.9759,
   "Aktiv": 1
 },
 {
   "Stationsnamn": "Karesuando A",
   "Stationsnummer": 192840,
   "Latitud": 68.4432,
   "Longitud": 22.4488,
   "Aktiv": 1
 },
 {
   "Stationsnamn": "Kätkesuando",
   "Stationsnummer": 193730,
   "Latitud": 68.1202,
   "Longitud": 23.3283,
   "Aktiv": 1
 },
 {
   "Stationsnamn": "Djupadal",
   "Stationsnummer": 75080,
   "Latitud": 57.1528,
   "Longitud": 15.5833,
   "Aktiv": 0
 },
 {
   "Stationsnamn": "Tjärö",
   "Stationsnummer": 65110,
   "Latitud": 56.1722,
   "Longitud": 15.05,
   "Aktiv": 0
 },
 {
   "Stationsnamn": "Östra Lonntorp",
   "Stationsnummer": 94220,
   "Latitud": 59.3861,
   "Longitud": 14.475,
   "Aktiv": 0
 },
 {
   "Stationsnamn": "Gärdsta",
   "Stationsnummer": 134060,
   "Latitud": 63.1417,
   "Longitud": 14.2833,
   "Aktiv": 0
 },
 {
   "Stationsnamn": "Fuglunda",
   "Stationsnummer": 53590,
   "Latitud": 55.5889,
   "Longitud": 13.8,
   "Aktiv": 0
 },
 {
   "Stationsnamn": "Götestorp",
   "Stationsnummer": 75640,
   "Latitud": 57.2666,
   "Longitud": 15.047,
   "Aktiv": 0
 },
 {
   "Stationsnamn": "Bodträskfors",
   "Stationsnummer": 170630,
   "Latitud": 66.0792,
   "Longitud": 20.925,
   "Aktiv": 0
 },
 {
   "Stationsnamn": "Gyljen",
   "Stationsnummer": 172740,
   "Latitud": 66.3792,
   "Longitud": 22.7139,
   "Aktiv": 0
 },
 {
   "Stationsnamn": "Färna",
   "Stationsnummer": 95480,
   "Latitud": 59.7833,
   "Longitud": 15.8667,
   "Aktiv": 0
 },
 {
   "Stationsnamn": "Kimramåla",
   "Stationsnummer": 75650,
   "Latitud": 57,
   "Longitud": 15.847,
   "Aktiv": 0
 },
 {
   "Stationsnamn": "Häggås",
   "Stationsnummer": 146600,
   "Latitud": 64.3991,
   "Longitud": 16.5965,
   "Aktiv": 0
 },
 {
   "Stationsnamn": "Kyrkhult",
   "Stationsnummer": 64180,
   "Latitud": 56.3556,
   "Longitud": 14.5972,
   "Aktiv": 0
 },
 {
   "Stationsnamn": "Gåsbornshyttan",
   "Stationsnummer": 94460,
   "Latitud": 59.8861,
   "Longitud": 14.3417,
   "Aktiv": 0
 },
 {
   "Stationsnamn": "Jonsered",
   "Stationsnummer": 72380,
   "Latitud": 57.7569,
   "Longitud": 12.1833,
   "Aktiv": 0
 },
 {
   "Stationsnamn": "Hjältevad",
   "Stationsnummer": 75370,
   "Latitud": 57.6278,
   "Longitud": 15.3375,
   "Aktiv": 0
 },
 {
   "Stationsnamn": "Hau träsk",
   "Stationsnummer": 78510,
   "Latitud": 57.8944,
   "Longitud": 18.9944,
   "Aktiv": 0
 },
 {
   "Stationsnamn": "Flåss myr",
   "Stationsnummer": 63190,
   "Latitud": 56.3806,
   "Longitud": 13.4819,
   "Aktiv": 0
 },
 {
   "Stationsnamn": "Dalfors",
   "Stationsnummer": 115630,
   "Latitud": 61.2139,
   "Longitud": 15.4083,
   "Aktiv": 0
 },
 {
   "Stationsnamn": "Kappeludden",
   "Stationsnummer": 66610,
   "Latitud": 56.8167,
   "Longitud": 16.8468,
   "Aktiv": 0
 },
 {
   "Stationsnamn": "Björklund",
   "Stationsnummer": 95270,
   "Latitud": 59.4208,
   "Longitud": 15.2958,
   "Aktiv": 0
 },
 {
   "Stationsnamn": "Arvika sanatorium",
   "Stationsnummer": 92430,
   "Latitud": 59.6667,
   "Longitud": 12.6194,
   "Aktiv": 0
 },